airport_id,type,name,latitude_deg,longitude_deg,elevation_ft,continent,iso_country,iso_region,municipality,iata_code
4983,medium_airport,Anaa Airport,-17.3526,-145.509995,10,OC,PF,PF-U-A,Anaa,AAA
27342,small_airport,Arrabury Airport,-26.69639,141.048718,334,OC,AU,AU-QLD,Tanbar,AAB
3176,medium_airport,El Arish International Airport,31.078565,33.836791,118,AS,EG,EG-SIN,El Arish,AAC
324756,small_airport,Adado Airport,6.095802,46.6375,1001,AF,SO,SO-GA,Adado,AAD
2060,medium_airport,Annaba Rabah Bitat Airport,36.826781,7.81334,16,AF,DZ,DZ-23,Annaba,AAE
19224,small_airport,Apalachicola Regional Airport,29.72750092,-85.02749634,20,NA,US,US-FL,Apalachicola,AAF
513,small_airport,Avelino Vieira Airport,-24.103901,-49.789101,2641,SA,BR,BR-PR,Arapoti,AAG
28490,small_airport,Aachen-Merzbrück Airport,50.823055,6.186389,623,EU,DE,DE-NW,Aachen,AAH
38046,small_airport,Arraias Airport,-13.025154,-46.884107,1923,SA,BR,BR-TO,Arraias,AAI
30606,small_airport,Cayana Airstrip,3.898681,-55.577907,360,SA,SR,SR-SI,Awaradam,AAJ
30607,small_airport,Aranuka Airport,0.185278,173.636993,6,OC,KI,KI-G,Buariki,AAK
2562,medium_airport,Aalborg Airport,57.092759,9.849243,10,EU,DK,DK-81,Aalborg,AAL
2808,medium_airport,Malamala Airport,-24.81809998,31.54459953,1124,AF,ZA,ZA-NP,Malamala,AAM
5230,medium_airport,Al Ain International Airport,24.26169968,55.60919952,869,AS,AE,AE-AZ,Al Ain,AAN
6251,medium_airport,Anaco Airport,9.430225,-64.470726,721,SA,VE,VE-B,Anaco,AAO
26763,medium_airport,Aji Pangeran Tumenggung Pranoto International Airport,-0.374478,117.250128,82,AS,ID,ID-KI,Samarinda,AAP
6511,medium_airport,Anapa Vityazevo Airport,45.002102,37.347301,174,EU,RU,RU-KDA,Krasnyi Kurgan,AAQ
2540,medium_airport,Aarhus Airport,56.303331,10.618286,82,EU,DK,DK-82,Aarhus,AAR
41361,small_airport,Apalapsili Airport,-3.882495,139.310932,3100,AS,ID,ID-PP,Apalapsili,AAS
44191,medium_airport,Altay Xuedu Airport,47.749886,88.085808,2460,AS,CN,CN-65,Altay,AAT
30608,small_airport,Asau Airport,-13.505132,-172.627888,,OC,WS,WS-VS,Asau,AAU
5694,medium_airport,Allah Valley Airport,6.367903,124.752431,659,AS,PH,PH-SCO,Surallah,AAV
5866,small_airport,Romeu Zema Airport,-19.5632,-46.9604,3276,SA,BR,BR-MG,Araxá,AAX
5315,medium_airport,Al Ghaydah International Airport,16.193341,52.174186,134,AS,YE,YE-MR,Al Ghaydah,AAY
30610,small_airport,Quezaltenango Airport,14.8656,-91.501999,7779,NA,GT,GT-QZ,Quezaltenango,AAZ
6503,medium_airport,Abakan International Airport,53.740002,91.385002,831,EU,RU,RU-KK,Abakan,ABA
300781,medium_airport,Asaba International Airport,6.204167,6.665278,305,AF,NG,NG-DE,Asaba,ABB
3996,medium_airport,Albacete Airport / Los Llanos Air Base,38.948502,-1.86352,2302,EU,ES,ES-CM,Albacete,ABC
5130,medium_airport,Abadan Airport,30.367887,48.230075,10,AS,IR,IR-06,Abadan,ABD
3356,medium_airport,Lehigh Valley International Airport,40.651773,-75.442797,393,NA,US,US-PA,Allentown,ABE
30611,small_airport,Abaiang Airport,1.79861,173.041,26,OC,KI,KI-G,Abaiang,ABF
27311,small_airport,Abingdon Downs Airport,-17.608814,143.183531,573,OC,AU,AU-QLD,,ABG
3357,medium_airport,Abilene Regional Airport,32.41130066,-99.68190002,1791,NA,US,US-TX,Abilene,ABI
2096,medium_airport,Félix-Houphouët-Boigny International Airport,5.26139,-3.92629,21,AF,CI,CI-AB,Abidjan,ABJ
30612,medium_airport,Kebri Dahar Airport,6.732577,44.241339,1800,AF,ET,ET-SO,Kebri Dahar,ABK
5363,medium_airport,Ambler Airport,67.107043,-157.854308,334,NA,US,US-AK,Ambler,ABL
26898,small_airport,Northern Peninsula Airport,-10.946194,142.455081,34,OC,AU,AU-QLD,Bamaga,ABM
41505,small_airport,Albina Airport,5.51272,-54.050098,19,SA,SR,SR-MA,Albina,ABN
323785,small_airport,Aboisso Airport,5.461944,-3.234722,95,AF,CI,CI-CM,Aboisso,ABO
301645,small_airport,Atkamba Airport,-6.06462,141.095173,150,OC,PG,PG-WPD,Atkamba Mission,ABP
16091,medium_airport,Albuquerque International Sunport,35.040199,-106.609001,5355,NA,US,US-NM,Albuquerque,ABQ
3358,medium_airport,Aberdeen Regional Airport,45.44910049,-98.42179871,1302,NA,US,US-SD,Aberdeen,ABR
3181,medium_airport,Abu Simbel Airport,22.367657,31.609962,614,AF,EG,EG-ASN,Abu Simbel,ABS
5084,medium_airport,King Saud Bin Abdulaziz (Al Baha) Airport,20.298506,41.636153,5486,AS,SA,SA-11,Al Aqiq,ABT
41475,small_airport,AA Bere Tallo (Haliwen) Airport,-9.074841,124.903285,1027,AS,ID,ID-NT,Atambua,ABU
2104,large_airport,Nnamdi Azikiwe International Airport,9.006790161,7.263169765,1123,AF,NG,NG-FC,Abuja,ABV
27044,medium_airport,Albury Airport,-36.066758,146.959148,539,OC,AU,AU-NSW,Albury,ABX
3359,medium_airport,Southwest Georgia Regional Airport,31.532946,-84.196215,197,NA,US,US-GA,Albany,ABY
2459,medium_airport,Aberdeen Dyce Airport,57.2019,-2.19778,215,EU,GB,GB-SCT,Aberdeen,ABZ
4688,large_airport,Aeropuerto Internacional Juan N. Álvarez,16.762118,-99.755473,16,NA,MX,MX-GRO,Ciudad de Acapulco,ACA
19228,small_airport,Antrim County Airport,44.988602,-85.198402,623,NA,US,US-MI,Bellaire,ACB
2090,large_airport,Kotoka International Airport,5.6051898,-0.166786,205,AF,GH,GH-AA,Accra,ACC
30613,small_airport,Alcides Fernández Airport,8.497847,-77.274106,50,SA,CO,CO-CHO,Acandí,ACD
3082,large_airport,César Manrique-Lanzarote Airport,28.945499,-13.6052,46,AF,ES,ES-CN,San Bartolomé,ACE
354654,small_airport,Aral Tarim Airport,40.464167,81.246944,,AS,CN,CN-65,Aral,ACF
4506,medium_airport,St Gallen Altenrhein Airport,47.485001,9.56077,1306,EU,CH,CH-SG,Altenrhein,ACH
2424,medium_airport,Alderney Airport,49.706104,-2.21472,290,EU,GG,GG-U-A,Saint Anne,ACI
26464,medium_airport,Anuradhapura Airport,8.301542,80.42848,324,AS,LK,LK-7,Anuradhapura,ACJ
3360,medium_airport,Nantucket Memorial Airport,41.25310135,-70.06020355,47,NA,US,US-MA,Nantucket,ACK
41025,small_airport,Arica Airport,-2.144851,-71.758389,316,NA,CO,CO-AMA,Arica,ACM
43060,small_airport,Ciudad Acuña New International Airport,29.333662,-101.100555,1410,NA,MX,MX-COA,Ciudad Acuña,ACN
5201,small_airport,Sahand Airport,37.34799957,46.12789917,4396,AS,IR,IR-03,Maragheh,ACP
30615,small_airport,Araracuara Airport,-0.600854,-72.398011,1250,NA,CO,CO-CAQ,Araracuara,ACR
30616,medium_airport,Achinsk Airport,56.269185,90.57511,1033,EU,RU,RU-KYA,Achinsk,ACS
3361,medium_airport,Waco Regional Airport,31.61129951,-97.23049927,516,NA,US,US-TX,Waco,ACT
42182,small_airport,Achutupu Airport,9.188481,-77.994153,10,NA,PA,PS-GY,Mamitupu,ACU
3362,medium_airport,California Redwood Coast-Humboldt County Airport,40.978101,-124.109,221,NA,US,US-CA,Arcata/Eureka,ACV
301647,medium_airport,Xingyi Wanfenglin Airport,25.083423,104.960804,4150,AS,CN,CN-52,Xingyi,ACX
3363,medium_airport,Atlantic City International Airport,39.45759964,-74.57720184,75,NA,US,US-NJ,Atlantic City,ACY
5207,medium_airport,Zabol Airport,31.098301,61.5439,1628,AS,IR,IR-11,Zabol,ACZ
4512,medium_airport,Adana Şakirpaşa Airport,36.982201,35.280399,65,AS,TR,TR-01,Seyhan,ADA
4533,large_airport,Adnan Menderes International Airport,38.2924,27.157,412,AS,TR,TR-35,İzmir,ADB
301695,small_airport,Andakombe Airport,-7.137222222,145.7447222,3600,OC,PG,PG-EHG,Andekombe,ADC
3157,large_airport,Addis Ababa Bole International Airport,8.97789,38.799301,7630,AF,ET,ET-AA,Addis Ababa,ADD
5311,medium_airport,Aden International Airport,12.8295,45.028801,7,AS,YE,YE-AD,Aden,ADE
4561,medium_airport,Adıyaman Airport,37.7314,38.468899,2216,AS,TR,TR-02,Adıyaman,ADF
19234,small_airport,Lenawee County Airport,41.866205,-84.077983,798,NA,US,US-MI,Adrian,ADG
30617,small_airport,Aldan Airport,58.60279846,125.4089966,2241,AS,RU,RU-SA,Aldan,ADH
3024,medium_airport,Arandis Airport,-22.461875,14.979322,1905,AF,NA,NA-ER,Arandis,ADI
5213,medium_airport,Amman Civil (Marka International) Airport,31.9727,35.9916,2555,AS,JO,JO-AM,Amman,ADJ
16092,medium_airport,Adak Airport,51.883564,-176.642783,18,NA,US,US-AK,Adak,ADK
27096,large_airport,Adelaide International Airport,-34.947512,138.533393,20,OC,AU,AU-SA,Adelaide,ADL
19236,small_airport,Ardmore Municipal Airport,34.30301,-97.0196342,777,NA,US,US-OK,Ardmore,ADM
27326,small_airport,Andamooka Airport,-30.438299,137.136993,76,OC,AU,AU-SA,,ADO
26467,medium_airport,Ampara Airport,7.336745,81.623869,150,AS,LK,LK-5,Ampara,ADP
5353,medium_airport,Kodiak Airport,57.75,-152.4940033,78,NA,US,US-AK,Kodiak,ADQ
20828,small_airport,Robert F Swinnie Airport,33.4516983,-79.52619934,26,NA,US,US-SC,Andrews,ADR
19237,small_airport,Addison Airport,32.96860123,-96.83640289,644,NA,US,US-TX,Dallas,ADS
19235,small_airport,Ada Regional Airport,34.805214,-96.671988,1016,NA,US,US-OK,Ada,ADT
5200,medium_airport,Ardabil Airport,38.32569885,48.42440033,4315,AS,IR,IR-24,Ardabil,ADU
309426,small_airport,El Daein Airport,11.4023,26.1186,1560,AF,SD,SD-DE,El Daein,ADV
3364,large_airport,Joint Base Andrews,38.810799,-76.866997,280,NA,US,US-MD,Camp Springs,ADW
2471,medium_airport,Leuchars Station Airfield,56.37398,-2.868862,38,EU,GB,GB-SCT,"Leuchars, Fife",ADX
2769,small_airport,Alldays Airport,-22.67900085,29.05550003,2600,AF,ZA,ZA-NP,Alldays,ADY
6163,medium_airport,Gustavo Rojas Pinilla International Airport,12.5836,-81.7112,19,SA,CO,CO-SAP,San Andrés,ADZ
30619,small_airport,Abemama Airport,0.490833,173.828995,8,OC,KI,KI-G,Abemama,AEA
44160,medium_airport,Baise Youjiang Airport,23.7206,106.959999,490,AS,CN,CN-45,Baise (Tianyang),AEB
300307,small_airport,Adareil Airport,10.053611,32.959444,1301,AF,SS,SS-23,Adar,AEE
26837,medium_airport,Aek Godang Airport,1.4001,99.430496,922,AS,ID,ID-SU,Padang Sidempuan,AEG
2996,medium_airport,Abeche Airport,13.847,20.844299,1788,AF,TD,TD-OD,Abeche,AEH
299319,small_airport,Aseki Airport,-7.350804856,146.1938667,4106,OC,PG,PG-MPL,Aseki,AEK
19244,small_airport,Albert Lea Municipal Airport,43.68149948,-93.36720276,1260,NA,US,US-MN,Albert Lea,AEL
326733,small_airport,Amgu Airport,45.84126,137.673568,10,EU,RU,RU-PRI,Amgu,AEM
3130,small_airport,Aioun el Atrouss Airport,16.7112999,-9.637880325,951,AF,MR,MR-02,Aioun El Atrouss,AEO
5771,large_airport,Jorge Newbery Airpark,-34.5592,-58.4156,18,SA,AR,AR-C,Buenos Aires,AEP
330359,small_airport,Ar Horqin Airport,43.87042,120.15958,1335,AS,CN,CN-15,Chifeng,AEQ
6519,large_airport,Sochi International Airport,43.449902,39.9566,89,EU,RU,RU-KDA,Sochi,AER
2564,medium_airport,"Ålesund Airport, Vigra",62.5625,6.1197,69,EU,NO,NO-15,Ålesund,AES
13176,small_airport,Allakaket Airport,66.55180359,-152.621994,441,NA,US,US-AK,Allakaket,AET
5138,medium_airport,Abu Musa Island Airport,25.8757,55.033001,23,AS,IR,IR-22,Abu Musa,AEU
3365,medium_airport,Alexandria International Airport,31.3274,-92.549797,89,NA,US,US-LA,Alexandria,AEX
117,medium_airport,Akureyri Airport,65.66000366,-18.0727005,6,EU,IS,IS-6,Akureyri,AEY
5788,medium_airport,Suboficial Ay Santiago Germano Airport,-34.588299,-68.4039,2470,SA,AR,AR-M,San Rafael,AFA
27290,small_airport,Port Alfred Airport,-33.555057,26.881656,275,AF,ZA,ZA-EC,Port Alfred,AFD
19245,small_airport,USAF Academy Airfield,38.972497,-104.821125,6572,NA,US,US-CO,Colorado Springs,AFF
30620,small_airport,Amalfi Airport,6.895033,-75.047334,5507,NA,CO,CO-ANT,Amalfi,AFI
309041,seaplane_base,Kondavattavana Tank Seaplane Base,7.284,81.644,95,AS,LK,LK-5,Ampara,AFK
5864,medium_airport,Piloto Osvaldo Marques Dias Airport,-9.866389,-56.106298,948,SA,BR,BR-MT,Alta Floresta,AFL
19248,small_airport,Jaffrey Airport Silver Ranch Airport,42.80509949,-72.00299835,1040,NA,US,US-NH,Jaffrey,AFN
19249,small_airport,Afton Municipal Airport,42.71120071,-110.9420013,6221,NA,US,US-WY,Afton,AFO
301665,small_airport,Afore Airstrip,-9.142222222,148.3908333,2500,OC,PG,PG-NPP,,AFR
41685,small_airport,Sugraly Airport,41.613899,64.2332,1396,AS,UZ,UZ-NW,Zarafshan,AFS
301649,small_airport,Afutara Aerodrome,-9.191388889,160.9486111,23,OC,SB,SB-ML,Bila,AFT
3366,medium_airport,Perot Field/Fort Worth Alliance Airport,32.99044,-97.31947,722,NA,US,US-TX,Fort Worth,AFW
4514,medium_airport,Afyon Air Base,38.726398,30.601101,3310,AS,TR,TR-03,Afyonkarahisar,AFY
5185,medium_airport,Sabzevar National Airport,36.16809845,57.59519958,3010,AS,IR,IR-09,Sabzevar,AFZ
3101,medium_airport,Al Massira Airport,30.322478,-9.412003,250,AF,MA,MA-AGD,Agadir (Temsia),AGA
2248,medium_airport,Augsburg Airport,48.425278,10.931667,1516,EU,DE,DE-BY,Augsburg,AGB
3367,medium_airport,Allegheny County Airport,40.354401,-79.930199,1252,NA,US,US-PA,Pittsburgh,AGC
41362,small_airport,Anggi Airport,-1.3858,133.8737,6644,AS,ID,ID-PB,Anggi-Papua Island,AGD
28751,small_airport,Wangerooge Airport,53.78277969,7.913888931,7,EU,DE,DE-NI,Wangerooge,AGE
4058,medium_airport,Agen-La Garenne Airport,44.17470169,0.590556026,204,EU,FR,FR-NAQ,Agen/La Garenne,AGF
301650,small_airport,Angoram Airport,-4.055833333,144.0738889,75,OC,PG,PG-ESW,Angoram,AGG
2711,medium_airport,Ängelholm-Helsingborg Airport,56.29610062,12.84710026,68,EU,SE,SE-M,Ängelholm,AGH
41510,small_airport,Wageningen Airstrip,5.841252,-56.673247,6,SA,SR,SR-NI,Wageningen,AGI
30621,small_airport,Aguni Airport,26.592755,127.240335,38,AS,JP,JP-47,Aguni,AGJ
301651,small_airport,Kagua Airport,-6.396388889,143.8536111,5350,OC,PG,PG-SHM,Kagua,AGK
301652,small_airport,Wanigela Airport,-9.3375,149.1555556,53,OC,PG,PG-NPP,,AGL
42247,heliport,Tasiilaq Heliport,65.612296,-37.618335,24,NA,GL,GL-SE,Tasiilaq,AGM
16093,seaplane_base,Angoon Seaplane Base,57.497097,-134.56722,,NA,US,US-AK,Angoon,AGN
19251,small_airport,Magnolia Municipal Airport / Ralph C Weiser Field,33.228001,-93.217002,319,NA,US,US-AR,Magnolia,AGO
4020,large_airport,Málaga-Costa del Sol Airport,36.6749,-4.49911,53,EU,ES,ES-AN,Málaga,AGP
26537,medium_airport,Agra Airport / Agra Air Force Station,27.157683,77.960942,551,AS,IN,IN-UP,Agra,AGR
3368,medium_airport,Augusta Regional At Bush Field,33.3699,-81.9645,144,NA,US,US-GA,Augusta,AGS
6091,large_airport,Aeropuerto Internacional Guaraní,-25.457186,-54.839544,846,SA,PY,PY-10,Ciudad del Este,AGT
4691,medium_airport,Governor Jesús Terán Peredo International Airport,21.699589,-102.318372,6112,NA,MX,MX-AGU,Aguascalientes,AGU
6249,medium_airport,Oswaldo Guevara Mujica Airport,9.553375,-69.237869,640,SA,VE,VE-P,Acarigua,AGV
30622,small_airport,Agnew Airport,-12.1456,142.149369,160,OC,AU,AU-QLD,Agnew,AGW
26602,medium_airport,Agatti Airport,10.8237,72.176003,14,AS,IN,IN-LD,Agatti,AGX
314491,small_airport,Argyle Downs Airport,-16.508604,128.922485,407,OC,AU,AU-WA,Argyle Downs,AGY
2768,medium_airport,Aggeneys Airport,-29.28179932,18.81389999,2648,AF,ZA,ZA-NC,Aggeneys,AGZ
5082,medium_airport,Abha International Airport,18.2404,42.656601,6858,AS,SA,SA-14,Abha,AHB
19254,small_airport,Amedee Army Air Field,40.26620102,-120.1529999,4012,NA,US,US-CA,Herlong,AHC
18462,small_airport,Ardmore Downtown Executive Airport,34.14699936,-97.12270355,844,NA,US,US-OK,Ardmore,AHD
4997,medium_airport,Ahe Airport,-14.42809963,-146.2570038,11,OC,PF,PF-U-A,Ahe Atoll,AHE
18661,small_airport,Arapahoe Municipal Airport,40.33950043,-99.90650177,2270,NA,US,US-NE,Arapahoe,AHF
19255,small_airport,Amery Municipal Airport,45.28110123,-92.37539673,1088,NA,US,US-WI,Amery,AHH
30623,small_airport,Amahai Airport,-3.347851,128.927093,29,AS,ID,ID-MA,Amahai,AHI
312371,medium_airport,Hongyuan Airport,32.53154,102.35224,11600,AS,CN,CN-51,Ngawa (Hongyuan),AHJ
30624,small_airport,Aishalton Airport,2.473206,-59.321596,587,SA,GY,GY-UT,Aishalton,AHL
20987,small_airport,Ashland Municipal Airport-Sumner Parker Field,42.190265,-122.660648,1885,NA,US,US-OR,Ashland,AHM
3369,medium_airport,Athens Ben Epps Airport,33.94860077,-83.32630157,808,NA,US,US-GA,Athens,AHN
4330,medium_airport,Alghero-Fertilia Airport,40.632099,8.29077,87,EU,IT,IT-88,Alghero,AHO
30625,small_airport,Ahuas Airport,15.4722,-84.352203,249,NA,HN,HN-GD,Ahuas,AHS
3119,medium_airport,Cherif Al Idrissi Airport,35.17710114,-3.839519978,95,AF,MA,MA-HOC,Al Hoceima,AHU
299324,small_airport,Ambatolhy Airport,-20.01583333,45.535,340,AF,MG,MG-U,Ambatolahy,AHY
28891,small_airport,Altiport L'Alpe d'Huez - Henri GIRAUD,45.087399,6.083604,6102,EU,FR,FR-ARA,L'Alpe d'Huez,AHZ
19257,small_airport,Alliance Municipal Airport,42.05319977,-102.8040009,3931,NA,US,US-NE,Alliance,AIA
299328,small_airport,Ailinglaplap Airok Airport,7.279422,168.8257,16,OC,MH,MH-ALL,Bigatyelang Island,AIC
19259,small_airport,Anderson Municipal Darlington Field,40.10860062,-85.61299896,919,NA,US,US-IN,Anderson,AID
46170,small_airport,Aiome Airport,-5.145699978,144.7307003,350,OC,PG,PG-MPM,Aiome,AIE
45622,small_airport,Marcelo Pires Halzhausen Airport,-22.64,-50.453056,1850,SA,BR,BR-SP,Assis,AIF
30626,small_airport,Yalinga Airport,6.519999981,23.26000023,1975,AF,CF,CF-HK,Yalinga,AIG
301654,small_airport,Aiambak Airport,-7.342777778,141.2675,90,OC,PG,PG-WPD,Aiambak,AIH
39580,small_airport,Ali-Sabieh Airport,11.146889,42.72,2313,AF,DJ,DJ-AS,Ali-Sabieh,AII
19261,small_airport,Aiken Regional Airport,33.649399,-81.684998,528,NA,US,US-SC,Aiken,AIK
42184,small_airport,Ailigandí Airport,9.2226,-78.0236,55,NA,PA,PS-GY,Isla Lorenzo Bello,AIL
35201,small_airport,Ailuk Airport,10.21679974,169.9830017,,OC,MH,MH-ALK,Ailuk Island,AIM
5422,medium_airport,Wainwright Airport,70.638,-159.994995,41,NA,US,US-AK,Wainwright,AIN
19262,small_airport,Atlantic Municipal Airport,41.40729904,-95.04689789,1165,NA,US,US-IA,Atlantic,AIO
26542,small_airport,Adampur Airport,31.4338,75.758797,775,AS,IN,IN-PB,Adampur,AIP
30627,small_airport,Aripuanã Airport,-10.188278,-59.457273,623,SA,BR,BR-MT,Aripuanã,AIR
30628,small_airport,Arorae Island Airport,-2.616110086,176.8029938,,OC,KI,KI-G,Arorae Island,AIS
4957,small_airport,Aitutaki Airport,-18.83090019,-159.7640076,14,OC,CK,CK-U-A,Aitutaki,AIT
30629,small_airport,Enua Airport,-19.96780014,-158.1190033,36,OC,CK,CK-U-A,Atiu Island,AIU
19264,small_airport,George Downer Airport,33.106499,-88.1978,150,NA,US,US-AL,Aliceville,AIV
315385,small_airport,Ai-Ais Airport,-27.995,17.5966,2000,AF,NA,NA-KA,Ai-Ais,AIW
19266,small_airport,Lee C Fine Memorial Airport,38.09600067,-92.54949951,869,NA,US,US-MO,Kaiser Lake Ozark,AIZ
4126,medium_airport,Ajaccio-Napoléon Bonaparte Airport,41.92359924,8.802920341,18,EU,FR,FR-COR,Ajaccio/Napoléon Bonaparte,AJA
5119,medium_airport,Al-Jawf Domestic Airport,29.78510094,40.09999847,2261,AS,SA,SA-12,Al-Jawf,AJF
4560,medium_airport,Ağrı Airport,39.655642,43.025742,5462,AS,TR,TR-04,Ağrı,AJI
30630,small_airport,Akjoujt Airport,19.727998,-14.377214,403,AF,MR,MR-12,Akjoujt,AJJ
5161,small_airport,Arak Airport,34.13809967,49.84730148,5440,AS,IR,IR-00,Araak,AJK
26510,medium_airport,Lengpui Airport,23.840599,92.619698,1398,AS,IN,IN-MZ,Aizawl (Lengpui),AJL
2903,medium_airport,Ouani Airport,-12.131047,44.430044,62,AF,KM,KM-A,Ouani,AJN
2691,medium_airport,Arvidsjaur Airport,65.59030151,19.28190041,1245,EU,SE,SE-BD,Arvidsjaur,AJR
30631,small_airport,Punta Abreojos Airport,26.7272,-113.558998,,NA,MX,MX-BCS,Mulegé,AJS
5862,medium_airport,Aracaju - Santa Maria International Airport,-10.984,-37.070301,139,SA,BR,BR-SE,Aracaju,AJU
2127,medium_airport,Mano Dayak International Airport,16.9659996,8.000109673,1657,AF,NE,NE-1,Agadez,AJY
30632,small_airport,Ankang Fuqiang Airport,32.75696,108.87338,1209,AS,CN,CN-61,Ankang (Hanbin),AKA
16190,small_airport,Atka Airport,52.22029877,-174.2059937,57,NA,US,US-AK,Atka,AKB
3370,medium_airport,Akron Executive Airport,41.037498,-81.466904,1067,NA,US,US-OH,Akron,AKC
26432,medium_airport,Akola Airport,20.698931,77.056883,999,AS,IN,IN-MM,Akola,AKD
30633,small_airport,Akieni Airport,-1.139670014,13.90359974,1660,AF,GA,GA-2,Akieni,AKE
3222,medium_airport,Kufra Airport,24.17869949,23.31399918,1367,AF,LY,LY-KF,Kufra,AKF
42760,small_airport,Anguganak Airport,-3.560504,142.217307,937,OC,PG,PG-SAN,Anguganak,AKG
5109,medium_airport,Prince Sultan Air Base,24.06270027,47.58050156,1651,AS,SA,SA-01,,AKH
16191,small_airport,Akiak Airport,60.9029007,-161.2310028,30,NA,US,US-AK,Akiak,AKI
5558,medium_airport,Asahikawa Airport,43.670799,142.447006,721,AS,JP,JP-01,Asahikawa,AKJ
16192,small_airport,Akhiok Airport,56.93870163,-154.1829987,44,NA,US,US-AK,Akhiok,AKK
5023,large_airport,Auckland International Airport,-37.01199,174.786331,23,OC,NZ,NZ-AUK,Auckland,AKL
301754,small_airport,Zakuoma Airport,10.89027778,19.81722222,1370,AF,TD,TD-SA,ZaKouma,AKM
5380,medium_airport,King Salmon Airport,58.677845,-156.651965,73,NA,US,US-AK,King Salmon,AKN
19272,small_airport,Colorado Plains Regional Airport,40.17559814,-103.2220001,4714,NA,US,US-CO,Akron,AKO
5381,medium_airport,Anaktuvuk Pass Airport,68.13359833,-151.7429962,2102,NA,US,US-AK,Anaktuvuk Pass,AKP
41363,small_airport,Gunung Batin Airport,-4.611139774,105.2320023,99,AS,ID,ID-LA,Astraksetra-Sumatra Island,AKQ
2105,medium_airport,Akure Airport,7.246739864,5.301010132,1100,AF,NG,NG-ON,Akure,AKR
30634,small_airport,Gwaunaru'u Airport,-8.70257,160.682007,5,OC,SB,SB-ML,Auki,AKS
3982,medium_airport,RAF Akrotiri,34.590401,32.9879,76,AS,CY,CY-XX,Akrotiri,AKT
30635,medium_airport,Aksu Hongqipo Airport,41.262501,80.291702,3816,AS,CN,CN-65,Aksu (Onsu),AKU
1791,medium_airport,Akulivik Airport,60.8185997,-78.14859772,75,NA,CA,CA-QC,Akulivik,AKV
5132,medium_airport,Aghajari Airport,30.7444,49.6772,88,AS,IR,IR-06,Aghajari,AKW
6438,medium_airport,Aktobe Airport,50.2458,57.206699,738,AS,KZ,KZ-AKT,Aktobe,AKX
26740,medium_airport,Sittwe Airport,20.133165,92.870693,27,AS,MM,MM-16,Sittwe,AKY
6421,large_airport,Almaty International Airport,43.354267,77.042828,2234,AS,KZ,KZ-ALA,Almaty,ALA
3371,medium_airport,Albany International Airport,42.74829865,-73.80169678,285,NA,US,US-NY,Albany,ALB
3997,large_airport,Alicante-Elche Miguel Hernández Airport,38.2822,-0.558156,142,EU,ES,ES-VC,Alicante,ALC
30636,small_airport,Alerta Airport,-11.68299961,-69.33300018,797,SA,PE,PE-MDD,Fortaleza,ALD
19696,small_airport,Alpine Casparis Municipal Airport,30.38419914,-103.6839981,4515,NA,US,US-TX,Alpine,ALE
2566,medium_airport,Alta Airport,69.97609711,23.37170029,9,EU,NO,NO-54,Alta,ALF
2050,large_airport,Houari Boumediene Airport,36.693886,3.214531,82,AF,DZ,DZ-16,Algiers,ALG
26888,medium_airport,Albany Airport,-34.94329834,117.8089981,233,OC,AU,AU-WA,Albany,ALH
3372,medium_airport,Alice International Airport,27.7409,-98.026901,178,NA,US,US-TX,Alice,ALI
2767,medium_airport,Alexander Bay Airport,-28.575001,16.5333,98,AF,ZA,ZA-NC,Alexander Bay,ALJ
4343,medium_airport,Villanova D'Albenga International Airport,44.050598,8.12743,148,EU,IT,IT-42,Albenga (SV),ALL
3373,medium_airport,Alamogordo White Sands Regional Airport,32.84051,-105.98794,4200,NA,US,US-NM,Alamogordo,ALM
3374,medium_airport,St Louis Regional Airport,38.89030075,-90.04599762,544,NA,US,US-IL,Alton/St Louis,ALN
3375,medium_airport,Waterloo Regional Airport,42.55709839,-92.40029907,873,NA,US,US-IA,Waterloo,ALO
5302,medium_airport,Aleppo International Airport,36.180698,37.2244,1276,AS,SY,SY-HL,Aleppo,ALP
477,small_airport,Alegrete Novo Airport,-29.81270027,-55.89339828,459,SA,BR,BR-RS,Alegrete,ALQ
5038,medium_airport,Alexandra Aerodrome,-45.210495,169.371113,752,OC,NZ,NZ-OTA,Alexandra,ALR
19275,medium_airport,San Luis Valley Regional Airport/Bergman Field,37.434898,-105.866997,7539,NA,US,US-CO,Alamosa,ALS
30637,small_airport,Alenquer Municipal Airport,-1.917,-54.7231,55,SA,BR,BR-PA,Alenquer,ALT
30638,small_airport,Caluula Airport,11.9582,50.748,6,AF,SO,SO-BR,Caluula,ALU
3376,medium_airport,Walla Walla Regional Airport,46.09489822,-118.288002,1194,NA,US,US-WA,Walla Walla,ALW
19276,small_airport,Thomas C Russell Field,32.91469955,-85.96299744,686,NA,US,US-AL,Alexander City,ALX
16289,seaplane_base,Alitak Seaplane Base,56.8995018,-154.2480011,,NA,US,US-AK,Lazy Bay,ALZ
3377,medium_airport,Rick Husband Amarillo International Airport,35.219398,-101.706001,3607,NA,US,US-TX,Amarillo,AMA
2916,small_airport,Ambilobe Airport,-13.18840027,48.98799896,72,AF,MG,MG-D,,AMB
30639,small_airport,Am Timan Airport,11.0340004,20.27400017,1420,AF,TD,TD-SA,Am Timan,AMC
26431,medium_airport,Sardar Vallabhbhai Patel International Airport,23.07719994,72.63469696,189,AS,IN,IN-GJ,Ahmedabad,AMD
301755,small_airport,Alto Molocue Airport,-15.61027778,37.68138889,1950,AF,MZ,MZ-Q,Alto Molocue,AME
301676,small_airport,Ama Airport,-4.101111111,141.67,145,OC,PG,PG-ESW,,AMF
3159,medium_airport,Arba Minch Airport,6.039390087,37.59049988,3901,AF,ET,ET-SN,,AMH
26749,small_airport,Selaparang Airport,-8.56056,116.095097,52,AS,ID,ID-NB,Mataram,AMI
273,small_airport,Cirilo Queiróz Airport,-16.18389,-40.66722,640,SA,BR,BR-MG,Almenara,AMJ
18302,small_airport,Animas Air Park,37.20320129,-107.8690033,6684,NA,US,US-CO,Durango,AMK
5212,large_airport,Queen Alia International Airport,31.72260094,35.99319839,2395,AS,JO,JO-AM,Amman,AMM
19278,small_airport,Gratiot Community Airport,43.32210159,-84.68800354,754,NA,US,US-MI,Alma,AMN
30641,small_airport,Mao Airport,14.14560032,15.31439972,1072,AF,TD,TD-KA,Mao,AMO
30642,small_airport,Ampanihy Airport,-24.6996994,44.73419952,771,AF,MG,MG-U,Ampanihy,AMP
26784,medium_airport,Pattimura International Airport,-3.71026,128.089005,33,AS,ID,ID-MA,Ambon,AMQ
2513,large_airport,Amsterdam Airport Schiphol,52.308601,4.76389,-11,EU,NL,NL-NH,Amsterdam,AMS
27328,small_airport,Amata Airport,-26.097363,131.202732,695,OC,AU,AU-SA,,AMT
301689,small_airport,Amanab Airport,-3.586,141.2143333,1307,OC,PG,PG-SAN,Amanab,AMU
30643,medium_airport,Amderma Airport,69.76329803,61.5564003,13,AS,RU,RU-NEN,Amderma,AMV
19280,small_airport,Ames Municipal Airport,41.992001,-93.621803,956,NA,US,US-IA,Ames,AMW
38229,small_airport,Ammaroo Airport,-21.73830032,135.2420044,,OC,AU,AU-NT,,AMX
301758,small_airport,Ambatomainty Airport,-17.68666667,45.62388889,1025,AF,MG,MG-M,,AMY
5025,medium_airport,Ardmore Airport,-37.02970123,174.9730072,111,OC,NZ,NZ-AUK,Manurewa,AMZ
42595,small_airport,Angama Airport,-1.27156,34.955513,6180,AF,KE,KE-700,Maasai Mara,ANA
3378,medium_airport,Anniston Regional Airport,33.5882,-85.8581,612,NA,US,US-AL,Anniston,ANB
5388,large_airport,Ted Stevens Anchorage International Airport,61.1744,-149.996002,152,NA,US,US-AK,Anchorage,ANC
3379,medium_airport,Anderson Regional Airport,34.49459839,-82.70939636,782,NA,US,US-SC,Anderson,AND
4121,medium_airport,Angers-Loire Airport,47.560299,-0.312222,194,EU,FR,FR-PDL,TFFR,ANE
6018,medium_airport,Andrés Sabella Gálvez International Airport,-23.444501,-70.445099,455,SA,CL,CL-AN,Antofagasta,ANF
4074,medium_airport,Angoulême-Brie-Champniers Airport,45.729198,0.221456,436,EU,FR,FR-NAQ,Angoulême/Brie/Champniers,ANG
16291,medium_airport,Aniak Airport,61.58160019,-159.5429993,88,NA,US,US-AK,Aniak,ANI
30645,small_airport,Zanaga Airport,-2.849999905,13.81700039,1870,AF,CG,CG-2,Zanaga,ANJ
4510,medium_airport,Etimesgut Air Base,39.94979858,32.68859863,2653,AS,TR,TR-06,Ankara,ANK
43971,small_airport,Andulo Airport,-11.4723,16.710899,,AF,AO,AO-BIE,Andulo,ANL
2917,medium_airport,Antsirabe Airport,-14.9994,50.320202,20,AF,MG,MG-D,Antsirabe,ANM
5391,medium_airport,Annette Island Airport,55.037026,-131.572695,119,NA,US,US-AK,Metlakatla,ANN
29661,small_airport,Angoche Airport,-16.18186951,39.94521713,121,AF,MZ,MZ-N,Angoche,ANO
19284,small_airport,Lee Airport,38.942902,-76.568398,34,NA,US,US-MD,Annapolis,ANP
19285,small_airport,Tri State Steuben County Airport,41.639702,-85.083504,995,NA,US,US-IN,Angola,ANQ
2152,medium_airport,Antwerp International Airport (Deurne),51.1894,4.46028,39,EU,BE,BE-VAN,Antwerp,ANR
6215,small_airport,Andahuaylas Airport,-13.70639992,-73.35040283,11300,SA,PE,PE-APU,Andahuaylas,ANS
6359,medium_airport,V.C. Bird International Airport,17.1367,-61.792702,62,NA,AG,AG-03,St. John's,ANU
5392,medium_airport,Anvik Airport,62.646702,-160.190994,291,NA,US,US-AK,Anvik,ANV
19286,small_airport,Ainsworth Regional Airport,42.579201,-99.992995,2589,NA,US,US-NE,Ainsworth,ANW
2565,medium_airport,"Andøya Airport, Andenes",69.292503,16.144199,43,EU,NO,NO-18,Andenes,ANX
19287,small_airport,Anthony Municipal Airport,37.158501,-98.079597,1340,NA,US,US-KS,Anthony,ANY
312361,small_airport,Angus Downs Airport,-25.0325,132.2748,1724,OC,AU,AU-NT,Angus Downs Station,ANZ
301705,small_airport,Annanberg Airport,-4.904166667,144.6358333,130,OC,PG,PG-MPM,,AOB
2184,medium_airport,Altenburg-Nobitz Airport,50.981945,12.506389,640,EU,DE,DE-TH,Altenburg,AOC
312362,small_airport,Abou-Deïa Airport,11.4773,19.2874,1592,AF,TD,TD-SA,Abou-Deïa,AOD
4547,medium_airport,Anadolu Airport,39.809898,30.5194,2588,AS,TR,TR-26,Eskişehir,AOE
30646,medium_airport,Anshan Teng'ao Airport / Anshan Air Base,41.105301,122.853996,,AS,CN,CN-21,Anshan,AOG
19289,small_airport,Lima Allen County Airport,40.706902,-84.026703,975,NA,US,US-OH,Lima,AOH
4367,medium_airport,Marche Airport,43.616299,13.3623,49,EU,IT,IT-57,Ancona,AOI
5605,medium_airport,Aomori Airport,40.73469925,140.6909943,664,AS,JP,JP-02,Aomori,AOJ
4265,medium_airport,Karpathos Airport,35.42139816,27.14599991,66,EU,GR,GR-L,Karpathos Island,AOK
5807,medium_airport,Paso De Los Libres Airport,-29.6894,-57.1521,230,SA,AR,AR-W,Paso de los Libres,AOL
299737,small_airport,Adam Airport,22.49194444,57.38388889,1075,AS,OM,OM-DA,Adam,AOM
3380,medium_airport,Altoona Blair County Airport,40.296398,-78.32,1503,NA,US,US-PA,Altoona,AOO
6201,small_airport,Alferez FAP Alfredo Vladimir Sara Bauer Airport,-2.796129942,-76.46659851,728,SA,PE,PE-LOR,Andoas,AOP
43214,heliport,Aappilattoq Heliport,72.88703,-55.596287,42,NA,GL,GL-AV,Aappilattoq,AOQ
26866,medium_airport,Sultan Abdul Halim Airport,6.189670086,100.3980026,15,AS,MY,MY-02,Alor Satar,AOR
16174,seaplane_base,Amook Bay Seaplane Base,57.4715004,-153.8150024,,NA,US,US-AK,Amook Bay,AOS
4349,medium_airport,Aosta Airport,45.738499,7.36872,1791,EU,IT,IT-23,Aosta,AOT
30647,small_airport,Attopeu Airport,14.793056,107.045278,344,AS,LA,LA-AT,Attopeu,AOU
19291,medium_airport,Centennial Airport,39.57009888,-104.848999,5885,NA,US,US-CO,Denver,APA
29662,small_airport,Apolo Airport,-14.73560047,-68.41190338,4639,SA,BO,BO-L,Apolo,APB
19292,small_airport,Napa County Airport,38.2132,-122.280998,35,NA,US,US-CA,Napa,APC
19293,medium_airport,Naples Municipal Airport,26.15259933,-81.77529907,8,NA,US,US-FL,Naples,APF
3381,medium_airport,Phillips Army Air Field,39.466202,-76.1688,57,NA,US,US-MD,Aberdeen Proving Grounds(Aberdeen),APG
19294,small_airport,A P Hill AAF (Fort A P Hill) Airport,38.068902,-77.318298,220,NA,US,US-VA,Fort A. P. Hill,APH
6098,medium_airport,Gomez Nino Apiay Air Base,4.07607,-73.5627,1207,SA,CO,CO-MET,Apiay,API
30648,small_airport,Apataki Airport,-15.5736,-146.414993,8,OC,PF,PF-U-A,Apataki,APK
2980,medium_airport,Nampula Airport,-15.10560036,39.28179932,1444,AF,MZ,MZ-N,Nampula,APL
3382,medium_airport,Alpena County Regional Airport,45.0780983,-83.56030273,690,NA,US,US-MI,Alpena,APN
6127,medium_airport,Antonio Roldán Betancur Airport,7.81196,-76.7164,46,NA,CO,CO-ANT,Carepa,APO
301727,small_airport,Asapa Airport,-8.979166667,148.1036111,1930,OC,PG,PG-NPP,,APP
270,small_airport,Arapiraca Airport,-9.775360107,-36.62919998,886,SA,BR,BR-AL,Arapiraca,APQ
301706,small_airport,April River Airport,-4.676666667,142.5401389,220,OC,PG,PG-ESW,April River,APR
567,small_airport,Anápolis Airport,-16.36230087,-48.92710114,3648,SA,BR,BR-GO,Anápolis,APS
19295,small_airport,Marion County Airport - Brown Field,35.060699,-85.585297,641,NA,US,US-TN,Jasper,APT
432,small_airport,Captain João Busse Airport,-23.609099,-51.384301,2625,SA,BR,BR-PR,Apucarana,APU
19296,small_airport,Apple Valley Airport,34.57529831,-117.185997,3062,NA,US,US-CA,Apple Valley,APV
4976,medium_airport,Faleolo International Airport,-13.82999992,-172.0079956,58,OC,WS,WS-AA,Apia,APW
485,small_airport,Arapongas Airport,-23.3529,-51.491699,2599,SA,BR,BR-PR,Arapongas,APX
37032,small_airport,Alto Parnaíba Airport,-9.083610535,-45.95055771,968,SA,BR,BR-MA,Alto Parnaíba,APY
5785,medium_airport,Zapala Airport,-38.975498,-70.113602,3330,SA,AR,AR-Q,Zapala,APZ
5861,medium_airport,Araraquara Airport,-21.812,-48.132999,2334,SA,BR,BR-SP,Araraquara,AQA
30649,small_airport,Quiché Airport,15.0122,-91.150597,6631,NA,GT,GT-QC,Santa Cruz del Quiché,AQB
30650,medium_airport,Anqing Tianzhushan Airport / Anqing North Air Base,30.582199,117.050003,,AS,CN,CN-34,Anqing,AQG
5103,medium_airport,Al Qaisumah/Hafr Al Batin Airport,28.335199,46.125099,1174,AS,SA,SA-04,Qaisumah,AQI
5214,medium_airport,Aqaba King Hussein International Airport,29.61160088,35.01810074,175,AS,JO,JO-AQ,Aqaba,AQJ
36747,small_airport,Ariquemes Airport,-9.880436,-63.047115,466,SA,BR,BR-RO,Ariquemes,AQM
6233,medium_airport,Rodríguez Ballón International Airport,-16.34110069,-71.58309937,8405,SA,PE,PE-ARE,Arequipa,AQP
16294,small_airport,Girdwood-Alyeska Airport,60.968774,-149.119792,150,NA,US,US-AK,Girdwood,AQY
19301,medium_airport,Acadiana Regional Airport,30.0378,-91.883904,24,NA,US,US-LA,New Iberia,ARA
19302,small_airport,Ann Arbor Municipal Airport,42.22299957,-83.74559784,839,NA,US,US-MI,Ann Arbor,ARB
5402,medium_airport,Arctic Village Airport,68.1147,-145.578995,2092,NA,US,US-AK,Arctic Village,ARC
26799,small_airport,Alor Island - Mali Airport,-8.13234,124.597,10,AS,ID,ID-NT,Kabola,ARD
6378,medium_airport,Antonio Nery Juarbe Pol Airport,18.45085,-66.675768,23,NA,PR,PR-U-A,Arecibo,ARE
41015,small_airport,Acaricuara Airport,0.533333,-70.133333,587,SA,CO,CO-VAU,Acaricuara,ARF
19303,small_airport,Walnut Ridge Regional Airport,36.124667,-90.925111,279,NA,US,US-AR,Walnut Ridge,ARG
6488,medium_airport,Talagi Airport,64.60030365,40.71670151,62,EU,RU,RU-ARK,Archangelsk,ARH
6001,medium_airport,Chacalluta Airport,-18.348499,-70.338699,167,SA,CL,CL-AP,Arica,ARI
3250,medium_airport,Arusha Airport,-3.367789984,36.63330078,4550,AF,TZ,TZ-01,Arusha,ARK
30651,small_airport,Arly Airport,11.59700012,1.48300004,761,AF,BF,BF-TAP,Arly,ARL
26893,medium_airport,Armidale Airport,-30.52809906,151.6170044,3556,OC,AU,AU-NSW,Armidale,ARM
2701,large_airport,Stockholm-Arlanda Airport,59.65190125,17.91860008,137,EU,SE,SE-AB,Stockholm,ARN
41073,small_airport,Arboletes Airport,8.855118,-76.422676,13,SA,CO,CO-ANT,Arboletes,ARO
301707,small_airport,Aragip Airport,-9.883333333,149.4833333,1750,OC,PG,PG-MBA,,ARP
429705,small_airport,El Troncal Airport,7.02106,-71.388901,512,SA,CO,CO-ARA,Arauquita,ARQ
29656,small_airport,D. Casimiro Szlapelis Airport,-45.013599,-70.812202,2286,SA,AR,AR-U,Alto Rio Senguerr,ARR
36924,small_airport,Aragarças Airport,-15.8994,-52.2411,1061,SA,BR,BR-GO,Aragarças,ARS
3383,medium_airport,Watertown International Airport,43.991901,-76.021698,325,NA,US,US-NY,Watertown,ART
5865,medium_airport,Araçatuba Airport,-21.141479,-50.424575,1361,SA,BR,BR-SP,Araçatuba,ARU
19306,small_airport,Lakeland-Noble F. Lee Memorial field,45.92789841,-89.73090363,1629,NA,US,US-WI,Minocqua-Woodruff,ARV
4471,medium_airport,Arad International Airport,46.17660141,21.26199913,352,EU,RO,RO-AR,Arad,ARW
275,medium_airport,Aracati Dragão do Mar Regional Airport,-4.568896,-37.805135,128,SA,BR,BR-CE,Aracati,ARX
26891,medium_airport,Ararat Airport,-37.309978,142.988688,1008,OC,AU,AU-VIC,Ararat,ARY
30653,small_airport,N'zeto Airport,-7.259439945,12.86310005,69,AF,AO,AO-ZAI,N'zeto,ARZ
3204,medium_airport,Assab International Airport,13.07180023,42.64500046,46,AF,ER,ER-DK,Asab,ASA
26380,large_airport,Ashgabat International Airport,37.986801,58.361,692,AS,TM,TM-S,Ashgabat,ASB
29671,small_airport,Ascención De Guarayos Airport,-15.93029976,-63.15670013,807,SA,BO,BO-S,Ascensión de Guarayos,ASC
4925,medium_airport,Andros Town Airport,24.69790077,-77.79560089,5,NA,BS,BS-NS,,ASD
19308,medium_airport,Aspen-Pitkin County Airport (Sardy Field),39.223202,-106.869003,7820,NA,US,US-CO,Aspen,ASE
6520,medium_airport,Astrakhan Narimanovo Boris M. Kustodiev International Airport,46.282843,48.010511,-65,AS,RU,RU-AST,Astrakhan,ASF
29672,small_airport,Ashburton Aerodrome,-43.90330124,171.7969971,302,OC,NZ,NZ-CAN,,ASG
19310,small_airport,Nashua Airport / Boire Field,42.7817,-71.514801,199,NA,US,US-NH,Nashua,ASH
2877,medium_airport,RAF Ascension Island,-7.9696,-14.3937,278,AF,SH,SH-AC,Cat Hill,ASI
5577,medium_airport,Amami Airport,28.43059921,129.7129974,27,AS,JP,JP-46,Amami,ASJ
2102,medium_airport,Yamoussoukro Airport,6.903170109,-5.365580082,699,AF,CI,CI-YM,Yamoussoukro,ASK
19312,small_airport,Harrison County Airport,32.52050018,-94.30780029,357,NA,US,US-TX,Marshall,ASL
3202,medium_airport,Asmara International Airport,15.29189968,38.91070175,7661,AF,ER,ER-SK,Asmara,ASM
19313,small_airport,Talladega Municipal Airport,33.56990051,-86.05090332,529,NA,US,US-AL,Talladega,ASN
3169,medium_airport,Asosa Airport,10.01850033,34.5862999,5100,AF,ET,ET-BE,Asosa,ASO
26900,medium_airport,Alice Springs Airport,-23.806588,133.903427,1789,OC,AU,AU-NT,Alice Springs,ASP
19204,small_airport,Austin Airport,39.467998,-117.195,5730,NA,US,US-NV,Austin,ASQ
4523,medium_airport,Kayseri Erkilet Airport,38.770401,35.49539948,3463,AS,TR,TR-38,Kayseri,ASR
41263,small_airport,Arathusa Safari Lodge Airport,-24.744165,31.522499,1289,AF,ZA,ZA-NP,Arathusa,ASS
19314,medium_airport,Astoria Regional Airport,46.15800095,-123.8789978,15,NA,US,US-OR,Astoria,AST
6088,large_airport,Aeropuerto Internacional Silvio Pettirossi,-25.241736,-57.514104,292,SA,PY,PY-11,Luque,ASU
28481,medium_airport,Amboseli Airport,-2.645050049,37.25310135,3755,AF,KE,KE-700,Amboseli National Park,ASV
3199,medium_airport,Aswan International Airport,23.968137,32.824445,650,AF,EG,EG-ASN,Aswan,ASW
19316,small_airport,John F Kennedy Memorial Airport,46.54850006,-90.91899872,827,NA,US,US-WI,Ashland,ASX
19317,small_airport,Ashley Municipal Airport,46.02389908,-99.3526001,2032,NA,US,US-ND,Ashley,ASY
301732,small_airport,Asirim Airport,-6.009722222,150.3686111,1050,OC,PG,PG-WBK,,ASZ
6216,medium_airport,Comandante FAP German Arias Graziani Airport,-9.347439766,-77.5983963,9097,SA,PE,PE-ANC,Anta,ATA
30654,small_airport,Atbara Airport,17.71034431,34.05701828,1181,AF,SD,SD-04,Atbara,ATB
4936,medium_airport,Arthur's Town Airport,24.6294,-75.673797,18,NA,BS,BS-CI,Arthur's Town,ATC
35172,small_airport,Uru Harbour Airport,-8.87333,161.011002,,OC,SB,SB-ML,Atoifi,ATD
19094,small_airport,Antlers Municipal Airport,34.19260025,-95.64990234,575,NA,US,US-OK,Antlers,ATE
6051,medium_airport,Chachoán Regional Airport,-1.21207,-78.5746,8502,SA,EC,EC-T,Ambato,ATF
32124,medium_airport,Minhas Air Base,33.86909866,72.40090179,1023,AS,PK,PK-PB,Kamra,ATG
4251,large_airport,Athens Eleftherios Venizelos International Airport,37.936401,23.9445,308,EU,GR,GR-I,Athens,ATH
30655,small_airport,Artigas International Airport,-30.40069962,-56.50790024,410,SA,UY,UY-AR,Artigas,ATI
30656,small_airport,Antsirabe Airport,-19.83922148,47.06371307,4997,AF,MG,MG-T,Antsirabe,ATJ
5416,medium_airport,Atqasuk Edward Burnell Sr Memorial Airport,70.46704,-157.436013,96,NA,US,US-AK,Atqasuk,ATK
3384,large_airport,Hartsfield Jackson Atlanta International Airport,33.6367,-84.428101,1026,NA,US,US-GA,Atlanta,ATL
5914,medium_airport,Altamira Interstate Airport,-3.253144,-52.253938,368,SA,BR,BR-PA,Altamira,ATM
301834,small_airport,Namatanai Airport,-3.6695,152.438,150,OC,PG,PG-NIK,Namatanai,ATN
21297,small_airport,Ohio University Snyder Field,39.21099854,-82.23139954,766,NA,US,US-OH,Athens/Albany,ATO
301672,small_airport,Aitape Airport,-3.143611111,142.3468056,10,OC,PG,PG-SAN,Aitape,ATP
26540,medium_airport,Sri Guru Ram Dass Jee International Airport,31.7096,74.797302,756,AS,IN,IN-PB,Amritsar,ATQ
3137,medium_airport,Atar International Airport,20.5067997,-13.04319954,734,AF,MR,MR-07,Atar,ATR
19319,small_airport,Artesia Municipal Airport,32.85250092,-104.4680023,3541,NA,US,US-NM,Artesia,ATS
11318,small_airport,Atmautluak Airport,60.866699,-162.272996,17,NA,US,US-AK,Atmautluak,ATT
30658,small_airport,Ati Airport,13.239778,18.315893,1089,AF,TD,TD-BA,Ati,ATV
19320,small_airport,Appleton International Airport,44.258099,-88.519096,918,NA,US,US-WI,Appleton,ATW
30659,small_airport,Atbasar Airport,51.852306,68.366892,1010,AS,KZ,KZ-AKM,Atbasar,ATX
3385,medium_airport,Watertown Regional Airport,44.91400146,-97.15470123,1749,NA,US,US-SD,Watertown,ATY
3177,medium_airport,Asyut International Airport,27.050818,31.016309,748,AF,EG,EG-AST,Asyut,ATZ
6402,large_airport,Queen Beatrix International Airport,12.5014,-70.015198,60,NA,AW,AW-U-A,Oranjestad,AUA
6171,medium_airport,Santiago Perez Airport,7.06888,-70.7369,420,SA,CO,CO-ARA,Arauca,AUC
27319,small_airport,Augustus Downs Airport,-18.51499939,139.878006,46,OC,AU,AU-QLD,,AUD
30660,small_airport,Abu Rudeis Airport,28.899694,33.202057,43,AF,EG,EG-JS,Ras Abu Rudeis,AUE
4130,medium_airport,Auxerre-Branches Airport,47.85020065,3.49710989,523,EU,FR,FR-BFC,Auxerre/Branches,AUF
19321,medium_airport,Augusta State Airport,44.3205986,-69.79730225,352,NA,US,US-ME,Augusta,AUG
5226,large_airport,Abu Dhabi International Airport,24.443764,54.651718,88,AS,AE,AE-AZ,Abu Dhabi,AUH
301735,small_airport,Aua Island Airport,-1.460555556,143.0647222,4,OC,PG,PG-MRL,Aua Island,AUI
301693,small_airport,Ambunti Airport,-4.215666667,142.8231667,50,OC,PG,PG-ESW,Ambunti,AUJ
16387,small_airport,Alakanuk Airport,62.68004227,-164.6599274,10,NA,US,US-AK,Alakanuk,AUK
30661,small_airport,Aur Island Airport,8.145279884,171.1730042,,OC,MH,MH-AUR,Aur Atoll,AUL
19323,small_airport,Austin Municipal Airport,43.66500092,-92.93340302,1234,NA,US,US-MN,Austin,AUM
19324,small_airport,Auburn Municipal Airport,38.95479965,-121.0820007,1539,NA,US,US-CA,Auburn,AUN
19325,small_airport,Auburn University Regional Airport,32.615101,-85.433998,777,NA,US,US-AL,Auburn,AUO
301668,small_airport,Agaun Airport,-9.930833,149.385667,3200,OC,PG,PG-MBA,,AUP
5002,medium_airport,Hiva Oa-Atuona Airport,-9.768790245,-139.0110016,1481,OC,PF,PF-U-A,Hiva Oa Island,AUQ
4146,medium_airport,Aurillac Airport,44.89139938,2.421940088,2096,EU,FR,FR-ARA,Aurillac,AUR
3386,large_airport,Austin Bergstrom International Airport,30.197535,-97.662015,542,NA,US,US-TX,Austin,AUS
35136,small_airport,Atauro Airport,-8.243133,125.606378,29,AS,TL,TL-AT,Vila,AUT
26894,small_airport,Aurukun Airport,-13.354019,141.720028,31,OC,AU,AU-QLD,Aurukun,AUU
301737,small_airport,Aumo Airport,-5.731111111,148.4452778,450,OC,PG,PG-WBK,Aumo,AUV
19326,medium_airport,Wausau Downtown Airport,44.92620087,-89.62660217,1201,NA,US,US-WI,Wausau,AUW
538,medium_airport,Araguaína Airport,-7.22787,-48.240501,771,SA,BR,BR-TO,Araguaína,AUX
30663,small_airport,Aneityum Airport,-20.24920082,169.7709961,7,OC,VU,VU-TAE,Anatom Island,AUY
19305,small_airport,Aurora Municipal Airport,41.77190018,-88.47570038,712,NA,US,US-IL,Chicago/Aurora,AUZ
300785,medium_airport,Anshun Huangguoshu Airport,26.260556,105.873333,4812,AS,CN,CN-52,Anshun (Xixiu),AVA
29443,medium_airport,Aviano Air Base,46.031898,12.596503,410,EU,IT,IT-36,Aviano (PN),AVB
27348,small_airport,Auvergne Airport,-15.69999981,130,,OC,AU,AU-NT,,AVG
4829,medium_airport,Maximo Gomez Airport,22.02709961,-78.78959656,335,NA,CU,CU-08,Ciego de Avila,AVI
29670,medium_airport,Arvaikheer Airport,46.25030136,102.802002,5932,AS,MN,MN-055,Arvaikheer,AVK
3387,medium_airport,Asheville Regional Airport,35.436199,-82.541801,2165,NA,US,US-NC,Asheville,AVL
4163,medium_airport,Avignon-Caumont Airport,43.90729904,4.901830196,124,EU,FR,FR-PAC,Avignon/Caumont,AVN
19329,small_airport,Avon Park Executive Airport,27.59119987,-81.52780151,160,NA,US,US-FL,Avon Park,AVO
3388,medium_airport,Wilkes Barre Scranton International Airport,41.33850098,-75.7233963,962,NA,US,US-PA,Wilkes-Barre/Scranton,AVP
4437,medium_airport,Alverca Air Base,38.883301,-9.0301,11,EU,PT,PT-11,Vila Franca de Xira,AVR
301837,small_airport,Avu Avu Airport,-9.868333333,160.4105556,25,OC,SB,SB-GU,,AVU
27043,medium_airport,Avalon Airport,-38.039398,144.468994,35,OC,AU,AU-VIC,Lara,AVV
19330,small_airport,Marana Regional Airport,32.409065,-111.216199,2031,NA,US,US-AZ,Marana,AVW
19331,small_airport,Catalina Airport,33.4049,-118.416,1602,NA,US,US-CA,Avalon,AVX
30664,medium_airport,Hawassa International Airport,7.099869,38.396187,5450,AF,ET,ET-XSD,Hawassa,AWA
42763,small_airport,Awaba Airport,-8.006110191,142.7483521,32,OC,PG,PG-WPD,Awaba,AWB
30665,small_airport,Aniwa Airport,-19.2346,169.6009,69,OC,VU,VU-TAE,Aniwa,AWD
301838,small_airport,Alowe Airport,-0.545,9.444,600,AF,GA,GA-3,Wonga Wongué Presidential Reserve,AWE
5506,medium_airport,Wake Island Airfield,19.282437,166.636637,14,OC,UM,UM-79,Wake Island,AWK
19333,small_airport,West Memphis Municipal Airport,35.13510132,-90.23439789,212,NA,US,US-AR,West Memphis,AWM
38222,small_airport,Alton Downs Airport,-26.488959,139.259906,,OC,AU,AU-SA,,AWN
27347,small_airport,Austral Downs Airport,-20.5,137.75,,OC,AU,AU-NT,,AWP
5137,medium_airport,Lieutenant General Qasem Soleimani International Airport,31.3374,48.762001,66,AS,IR,IR-06,Ahvaz,AWZ
6407,medium_airport,Clayton J Lloyd International Airport,18.204773,-63.05383,127,NA,AI,AI-U-A,The Valley,AXA
19113,small_airport,Maxson Airfield,44.312002,-75.90034,340,NA,US,US-NY,Alexandria Bay,AXB
27325,small_airport,Aramac Airport,-22.95788,145.249504,232,OC,AU,AU-QLD,,AXC
4250,medium_airport,Alexandroupoli Democritus Airport,40.8559,25.956301,24,EU,GR,GR-A,Alexandroupolis,AXD
37736,small_airport,Xanxerê Airport,-26.87555695,-52.3730545,2986,SA,BR,BR-SC,Xanxerê,AXE
314558,medium_airport,Alxa Left Banner Bayanhot Airport,38.74831,105.58858,4560,AS,CN,CN-15,Bayanhot,AXF
19335,small_airport,Algona Municipal Airport,43.078104,-94.271836,1219,NA,US,US-IA,Algona,AXG
5553,small_airport,Amakusa Airport,32.482498,130.158997,340,AS,JP,JP-43,Amakusa,AXJ
5312,medium_airport,Ataq Airport,14.5513,46.826199,3735,AS,YE,YE-SH,Ataq,AXK
27323,small_airport,Alexandria Homestead Airport,-19.06019974,136.7100067,,OC,AU,AU-NT,,AXL
6099,medium_airport,El Eden Airport,4.45278,-75.7664,3990,SA,CO,CO-QUI,Armenia,AXM
3389,medium_airport,Chandler Field,45.866299,-95.394699,1425,NA,US,US-MN,Alexandria,AXN
352222,small_airport,Pantar Kabir Airport,-8.244832,124.219108,18,AS,ID,ID-NT,Kabir,AXO
4929,medium_airport,Spring Point Airport,22.44179916,-73.97090149,11,NA,BS,BS-AK,Spring Point,AXP
4994,medium_airport,Arutua Airport,-15.2482996,-146.6170044,9,OC,PF,PF-U-A,,AXR
19338,small_airport,Altus Quartz Mountain Regional Airport,34.697952,-99.3385,1433,NA,US,US-OK,Altus,AXS
5611,medium_airport,Akita Airport,39.615601,140.218994,313,AS,JP,JP-05,Akita,AXT
3160,medium_airport,Axum Airport,14.1468,38.7728,6959,AF,ET,ET-TI,Axum,AXU
19339,small_airport,Neil Armstrong Airport,40.49340057,-84.29889679,913,NA,US,US-OH,Wapakoneta,AXV
19340,small_airport,Angel Fire Airport,36.42200089,-105.2900009,8380,NA,US,US-NM,Angel Fire,AXX
41059,small_airport,Ayapel Airport,8.3,-75.15,120,SA,CO,CO-COR,Ayapel,AYA
41044,small_airport,Ayacucho Airport,8.6,-73.616667,415,SA,CO,CO-CES,Ayacucho,AYC
30666,small_airport,Alroy Downs Airport,-19.2908,136.078995,711,OC,AU,AU-NT,Alroy Downs,AYD
30667,small_airport,Yaguara Airport,1.54417,-73.9333,812,SA,CO,CO-CAQ,San Vicente Del Caguán,AYG
41029,small_airport,Yari Airport,-0.383333,-72.266667,569,SA,CO,CO-CAQ,Yari,AYI
30668,small_airport,Arkalyk North Airport,50.3185997,66.95279694,1266,AS,KZ,KZ-KUS,Arkalyk,AYK
27331,small_airport,Anthony Lagoon Airport,-18.01807903,135.5350685,,OC,AU,AU-NT,,AYL
317271,seaplane_base,Yas Island Seaplane Base,24.467,54.6103,0,AS,AE,AE-AZ,Abu Dhabi,AYM
30670,small_airport,Anyang Airport,36.1339,114.344002,,AS,CN,CN-41,Anyang,AYN
6089,medium_airport,Aeropuerto Nacional de Juan De Ayolas,-27.378379,-56.856791,223,SA,PY,PY-8,Ayolas,AYO
6214,medium_airport,Air Force Colonel Alfredo Mendivil Duarte Airport,-13.1548,-74.204399,8917,SA,PE,PE-AYA,Ayacucho,AYP
26895,medium_airport,Ayers Rock Connellan Airport,-25.185913,130.97703,1626,OC,AU,AU-NT,Yulara,AYQ
26896,small_airport,Ayr Airport,-19.595832,147.324495,41,OC,AU,AU-QLD,Ayr,AYR
19341,small_airport,Waycross Ware County Airport,31.24909973,-82.39550018,142,NA,US,US-GA,Waycross,AYS
4515,large_airport,Antalya International Airport,36.898701,30.800501,177,AS,TR,TR-07,Antalya,AYT
301673,small_airport,Aiyura Airport,-6.338055556,145.9041667,5355,OC,PG,PG-EHG,Aiyura Valley,AYU
41365,small_airport,Ayawasi Airport,-1.159779,132.464082,1560,AS,ID,ID-PB,Ayawasi,AYW
6202,medium_airport,Teniente General Gerardo Pérez Pinedo Airport,-10.7291,-73.766502,751,SA,PE,PE-UCA,Atalaya,AYX
300786,seaplane_base,Arugam Bay SPB,6.86,81.82388889,,AS,LK,LK-5,Pottuvil,AYY
3617,medium_airport,Phoenix–Mesa Gateway Airport,33.3078,-111.654999,1382,NA,US,US-AZ,Mesa,AZA
301690,small_airport,Amazon Bay Airport,-10.29916667,149.3383333,12,OC,PG,PG-CPM,,AZB
5206,medium_airport,Shahid Sadooghi Airport,31.9048996,54.2765007,4054,AS,IR,IR-21,Yazd,AZD
30671,small_airport,Apatzingán - Pablo L. Sidar Airport,19.093399,-102.393997,1033,NA,MX,MX-MIC,Apatzingán,AZG
5227,medium_airport,Al Bateen Executive Airport,24.428301,54.458099,16,AS,AE,AE-AZ,Abu Dhabi,AZI
349715,small_airport,Zhenjiang Dalu Airport,32.23649,119.718683,16,AS,CN,CN-32,Zhenjiang,AZJ
587,small_airport,Fazenda Tucunaré Airport,-13.465528,-58.866935,1814,SA,BR,BR-MT,Sapezal,AZL
30672,medium_airport,Andizhan Airport,40.727699,72.293999,1515,AS,UZ,UZ-AN,Andizhan,AZN
3390,medium_airport,Kalamazoo Battle Creek International Airport,42.23490143,-85.55210114,874,NA,US,US-MI,Kalamazoo,AZO
4719,small_airport,Aeropuerto Nacional Jorge Jiménez Cantú,19.574155,-99.291183,8120,NA,MX,MX-MEX,Atizapán de Zaragoza,AZP
2075,medium_airport,Touat Cheikh Sidi Mohamed Belkebir Airport,27.837601,-0.186414,919,AF,DZ,DZ-01,Adrar,AZR
30673,medium_airport,Samaná El Catey International Airport,19.269259,-69.737405,30,NA,DO,DO-20,Samana,AZS
41039,small_airport,Zapatoca Airport,6.816667,-73.283333,6377,SA,CO,CO-SAN,Zapatoca,AZT
30674,small_airport,Ambriz Airport,-7.86221981,13.11610031,144,AF,AO,AO-BGO,Ambriz,AZZ
30675,small_airport,Bialla Airport,-5.330560207,151.0079956,51,OC,PG,PG-WBK,"Bialla, Matalilu, Ewase",BAA
3391,medium_airport,Beale Air Force Base,39.136101,-121.436996,113,NA,US,US-CA,Marysville,BAB
41033,small_airport,Barranca De Upia Airport,4.583333,-72.966667,670,SA,CO,CO-MET,Barranca De Upia,BAC
3392,medium_airport,Barksdale Air Force Base,32.501801,-93.662697,166,NA,US,US-LA,Bossier City,BAD
28935,small_airport,Barcelonnette - Saint-Pons Airfield,44.387198,6.609186,3714,EU,FR,FR-PAC,Le Castellet,BAE
3393,medium_airport,Westfield-Barnes Regional Airport,42.157799,-72.715599,271,NA,US,US-MA,Westfield,BAF
5715,medium_airport,Loakan Airport,16.37509918,120.6200027,4251,AS,PH,PH-BEN,Baguio City,BAG
5079,large_airport,Bahrain International Airport,26.267295,50.63764,6,AS,BH,BH-15,Manama,BAH
4796,medium_airport,Buenos Aires Airport,9.163949,-83.330171,1214,NA,CR,CR-P,Punta Arenas,BAI
301840,small_airport,Bali Airport,-4.883333333,149.1333333,90,OC,PG,PG-WBK,Unea Island,BAJ
4556,medium_airport,Batman Airport,37.92900085,41.11660004,1822,AS,TR,TR-72,Batman,BAL
19349,small_airport,Battle Mountain Airport,40.59899902,-116.8740005,4532,NA,US,US-NV,Battle Mountain,BAM
30676,small_airport,Basongo Airport,-4.315802,20.414891,1640,AF,CD,CD-KI,Basongo,BAN
30677,small_airport,Udorn Air Base,17.38299942,102.8000031,,AS,TH,TH-41,Ban Mak Khaen,BAO
6105,medium_airport,Ernesto Cortissoz International Airport,10.8896,-74.7808,98,SA,CO,CO-ATL,Barranquilla,BAQ
323220,medium_airport,Qionghai Bo'ao Airport,19.140951,110.452766,30,AS,CN,CN-46,Qionghai (Basuo),BAR
30678,small_airport,Ballalae Airport,-6.990745,155.886656,5,OC,SB,SB-WE,Ballalae,BAS
5873,medium_airport,Chafei Amsei Airport,-20.58449936,-48.59410095,1898,SA,BR,BR-SP,Barretos,BAT
5874,small_airport,Bauru Airport,-22.344999,-49.053799,2025,SA,BR,BR-SP,Bauru,BAU
30679,medium_airport,Baotou Donghe Airport,40.560001,109.997002,3321,AS,CN,CN-15,Baotou,BAV
6504,medium_airport,Barnaul Airport,53.36380005,83.53849792,837,AS,RU,RU-ALT,Barnaul,BAX
4473,medium_airport,Maramureș International Airport,47.660598,23.467252,605,EU,RO,RO-MM,Baia Mare,BAY
518,small_airport,Barcelos Airport,-0.981191,-62.918603,112,SA,BR,BR-AM,Barcelos,BAZ
6003,medium_airport,Balmaceda Airport,-45.91609955,-71.6894989,1722,SA,CL,CL-AI,Balmaceda,BBA
19352,small_airport,Benson Municipal Airport,45.33190155,-95.65059662,1039,NA,US,US-MN,Benson,BBB
19431,small_airport,Bay City Regional Airport,28.973301,-95.863503,45,NA,US,US-TX,Bay City,BBC
19353,medium_airport,Curtis Field,31.17930031,-99.32389832,1827,NA,US,US-TX,Brady,BBD
30681,small_airport,Butaritari Airport,3.08583,172.811005,5,OC,KI,KI-G,Butaritari,BBG
2196,small_airport,Barth Airport,54.338253,12.710515,23,EU,DE,DE-MV,,BBH
26494,medium_airport,Biju Patnaik Airport,20.24440002,85.81780243,138,AS,IN,IN-OR,Bhubaneswar,BBI
2265,small_airport,Bitburg Airport,49.945278,6.565,1220,EU,DE,DE-RP,Bitburg,BBJ
2862,medium_airport,Kasane Airport,-17.832899,25.162399,3289,AF,BW,BW-CH,Kasane,BBK
27036,small_airport,Ballera Airport,-27.405633,141.809458,385,OC,AU,AU-QLD,,BBL
26473,medium_airport,Battambang Airport,13.0956,103.223999,59,AS,KH,KH-2,Battambang,BBM
30682,medium_airport,Bario Airport,3.734648,115.478548,3350,AS,MY,MY-13,Bario,BBN
3172,medium_airport,Berbera Airport,10.385035,44.936723,30,AF,SO,SO-WO,Berbera,BBO
29143,small_airport,Bembridge Airport,50.67810059,-1.109439969,53,EU,GB,GB-ENG,Bembridge,BBP
35328,medium_airport,Codrington Airport,17.635799,-61.828602,15,NA,AG,AG-10,Codrington,BBQ
30683,small_airport,Basse-Terre Baillif Airport,16.013648,-61.742928,59,NA,GP,GP-U-A,Basse-Terre,BBR
2433,medium_airport,Blackbushe Airport,51.32389832,-0.847500026,325,EU,GB,GB-ENG,Yateley,BBS
2874,medium_airport,Berbérati Airport,4.221580029,15.78639984,1929,AF,CF,CF-HS,Berbérati,BBT
4474,medium_airport,Băneasa International Airport,44.503201,26.1021,297,EU,RO,RO-B,Bucharest,BBU
30917,small_airport,Nero-Mer Airport,4.643413067,-6.923961639,20,AF,CI,CI-BS,Grand-Béréby,BBV
19355,small_airport,Broken Bow Municipal Airport,41.43650055,-99.64219666,2547,NA,US,US-NE,Broken Bow,BBW
20365,small_airport,Wings Field,40.13750076,-75.26509857,302,NA,US,US-PA,Philadelphia,BBX
30684,small_airport,Bambari Airport,5.847012,20.64992,1549,AF,CF,CF-UK,Bambari,BBY
30685,small_airport,Zambezi Airport,-13.535996,23.10559,3538,AF,ZM,ZM-06,Zambezi,BBZ
4826,medium_airport,Gustavo Rizo Airport,20.36529922,-74.5062027,26,NA,CU,CU-14,Baracoa,BCA
19356,small_airport,Virginia Tech Montgomery Executive Airport,37.20759964,-80.40779877,2132,NA,US,US-VA,Blacksburg,BCB
26354,small_airport,Bear Creek 3 Airport,63.57331604,-156.1494541,740,NA,US,US-AK,Bear Creek,BCC
35178,medium_airport,Bacolod-Silay Airport,10.7764,123.014999,82,AS,PH,PH-NEC,Bacolod City,BCD
19357,medium_airport,Bryce Canyon Airport,37.70640183,-112.1449966,7590,NA,US,US-UT,Bryce Canyon,BCE
30686,small_airport,Bouca Airport,6.517000198,18.2670002,1532,AF,CF,CF-AC,Bouca,BCF
41500,small_airport,Bemichi Airport,7.640212,-58.961786,94,SA,GY,GY-BA,Kumaka,BCG
26882,medium_airport,Cakung Airport,-8.486479,126.399981,1771,AS,TL,TL-BA,Baucau,BCH
26899,medium_airport,Barcaldine Airport,-23.566268,145.302086,878,OC,AU,AU-QLD,Barcaldine,BCI
27427,small_airport,Bolwarra Airport,-17.38829994,144.1690063,,OC,AU,AU-QLD,,BCK
4797,medium_airport,Barra del Colorado Airport,10.76869965,-83.58560181,3,NA,CR,CR-L,Pococi,BCL
4472,medium_airport,Bacău Airport,46.52190018,26.9102993,607,EU,RO,RO-BC,Bacău,BCM
4004,large_airport,Josep Tarradellas Barcelona-El Prat Airport,41.2971,2.07846,12,EU,ES,ES-CT,Barcelona,BCN
28119,small_airport,Baco Airport,5.78287,36.562,4580,AF,ET,ET-SN,Baco,BCO
301858,small_airport,Bambu Airport,-5.863611111,146.4925,6790,OC,PG,PG-MPM,Bambu,BCP
30688,medium_airport,Brak Airport,27.653,14.272,1056,AF,LY,LY-SH,Brak,BCQ
565,small_airport,Novo Campo Airport,-8.83456,-67.312401,394,SA,BR,BR-AM,Boca do Acre,BCR
12995,small_airport,Southern Seaplane Airport,29.866078,-90.021608,,NA,US,US-LA,Belle Chasse,BCS
19359,small_airport,Boca Raton Airport,26.37849998,-80.10769653,13,NA,US,US-FL,Boca Raton,BCT
323056,medium_airport,Sir Abubakar Tafawa Balewa International Airport,10.482833,9.744,1965,AF,NG,NG-BA,Bauchi,BCU
44573,small_airport,Hector Silva Airstrip,17.269603,-88.776496,150,NA,BZ,BZ-CY,Belmopan,BCV
27301,medium_airport,Benguera Island Airport,-21.85330009,35.43830109,,AF,MZ,MZ-I,Benguera Island,BCW
30690,small_airport,Beloretsk Airport,53.938389,58.340113,1827,EU,RU,RU-BA,Beloretsk,BCX
301872,small_airport,Milyakburra Airport,-13.78083333,136.2016667,85,OC,AU,AU-NT,Bickerton Island,BCZ
6416,medium_airport,L.F. Wade International International Airport,32.36399841,-64.67870331,12,NA,BM,BM-U-A,Hamilton,BDA
26936,medium_airport,Bundaberg Airport,-24.905039,152.322612,107,OC,AU,AU-QLD,Bundaberg,BDB
29687,small_airport,Barra do Corda Airport,-5.5025,-45.215833,509,SA,BR,BR-MA,Barra Do Corda,BDC
27355,small_airport,Badu Island Airport,-10.14955,142.173665,14,OC,AU,AU-QLD,Badu Island,BDD
3395,medium_airport,Baudette International Airport,48.72840118,-94.61219788,1086,NA,US,US-MN,Baudette,BDE
10532,small_airport,Rinkenberger Restricted Landing Area,41.23089981,-89.61569977,808,NA,US,US-IL,Bradford,BDF
19360,small_airport,Blanding Municipal Airport,37.58330154,-109.4830017,5868,NA,US,US-UT,Blanding,BDG
5144,medium_airport,Bandar Lengeh International Airport,26.532283,54.82484,67,AS,IR,IR-22,Bandar Lengeh,BDH
30691,small_airport,Bird Island Airport,-3.72472,55.205299,6,AF,SC,SC-15,Bird Island,BDI
26779,small_airport,Syamsudin Noor International Airport,-3.44236,114.763,66,AS,ID,ID-KS,Landasan Ulin,BDJ
30692,small_airport,Soko Airport,8.017219543,-2.761940002,1247,AF,CI,CI-ZZ,Bondoukou,BDK
3396,medium_airport,Bradley International Airport,41.93851,-72.688066,173,NA,US,US-CT,Hartford,BDL
4530,medium_airport,Bandırma Airport,40.318001,27.977699,170,AS,TR,TR-10,Bandırma,BDM
5282,small_airport,Talhar Airport,24.84149933,68.83840179,28,AS,PK,PK-SD,Badin,BDN
26824,medium_airport,Husein Sastranegara International Airport,-6.90063,107.575996,2436,AS,ID,ID-JB,Bandung,BDO
26594,small_airport,Bhadrapur Airport,26.57080078,88.07959747,300,AS,NP,NP-P1,Bhadrapur,BDP
26438,medium_airport,Vadodara Airport,22.336201,73.226303,129,AS,IN,IN-GJ,Vadodara,BDQ
3397,medium_airport,Igor I Sikorsky Memorial Airport,41.16350174,-73.12619781,9,NA,US,US-CT,Bridgeport,BDR
4315,large_airport,Brindisi Airport,40.6576,17.947001,47,EU,IT,IT-75,Brindisi,BDS
3047,medium_airport,Gbadolite Airport,4.252745,20.975271,1509,AF,CD,CD-NU,Gbadolite,BDT
2574,medium_airport,Bardufoss Airport,69.05580139,18.54039955,252,EU,NO,NO-54,Målselv,BDU
30693,small_airport,Moba Airport,-7.08488,29.737072,2953,AF,CD,CD-TA,Moba,BDV
38242,small_airport,Bedford Downs Airport,-17.2866993,127.4629974,1750,OC,AU,AU-WA,,BDW
18303,small_airport,Broadus Airport,45.47249985,-105.4540024,3280,NA,US,US-MT,Broadus,BDX
20988,small_airport,Bandon State Airport,43.08649826,-124.4079971,122,NA,US,US-OR,Bandon,BDY
301874,small_airport,Baindoung Airport,-6.347222222,146.9422222,4400,OC,PG,PG-MPL,,BDZ
2465,medium_airport,Benbecula Airport,57.48109818,-7.362780094,19,EU,GB,GB-SCT,Balivanich,BEB
19363,small_airport,Beech Factory Airport,37.69449997,-97.21499634,1408,NA,US,US-KS,Wichita,BEC
3398,medium_airport,Laurence G Hanscom Field,42.47000122,-71.28900146,133,NA,US,US-MA,Bedford,BED
38248,small_airport,Beagle Bay Airport,-17.0165,122.6464,124,OC,AU,AU-WA,Dampier Peninsula,BEE
4770,medium_airport,Bluefields Airport,11.991,-83.774101,20,NA,NI,NI-AS,Bluefileds,BEF
4610,large_airport,Belgrade Nikola Tesla Airport,44.818401,20.309099,335,EU,RS,RS-00,Belgrade,BEG
19364,small_airport,Southwest Michigan Regional Airport,42.12860107,-86.42849731,643,NA,US,US-MI,Benton Harbor,BEH
30694,small_airport,Beica Airport,9.38639,34.5219,5410,AF,ET,ET-OR,Beica,BEI
26759,medium_airport,Kalimarau Airport,2.1555,117.431999,59,AS,ID,ID-KI,Tanjung Redeb - Borneo Island,BEJ
26549,medium_airport,Bareilly Air Force Station,28.42210007,79.45079803,580,AS,IN,IN-UP,Bareilly,BEK
5867,large_airport,Val de Cans/Júlio Cezar Ribeiro International Airport,-1.379279,-48.476207,54,SA,BR,BR-PA,Belém,BEL
29694,small_airport,Beni Mellal Airport,32.401895,-6.315905,1694,AF,MA,MA-BEM,Oulad Yaich,BEM
3223,medium_airport,Benina International Airport,32.096802,20.269501,433,AF,LY,LY-BA,Benina,BEN
27880,small_airport,Lake Macquarie Airport,-33.065975,151.646283,2,OC,AU,AU-NSW,,BEO
26604,medium_airport,Bellary Airport,15.16279984,76.88279724,30,AS,IN,IN-KA,Bellary,BEP
2501,medium_airport,RAF Honington,52.34260178,0.772939026,174,EU,GB,GB-ENG,Thetford,BEQ
301881,large_airport,Berlin Brandenburg Airport,52.362247,13.500672,157,EU,DE,DE-BR,Berlin,BER
4206,medium_airport,Brest Bretagne Airport,48.44789886,-4.418540001,325,EU,FR,FR-BRE,Brest/Guipavas,BES
5338,medium_airport,Bethel Airport,60.77980042,-161.8379974,126,NA,US,US-AK,Bethel,BET
26910,medium_airport,Bedourie Airport,-24.34609985,139.4600067,300,OC,AU,AU-QLD,,BEU
4412,small_airport,Beersheba (Teyman) Airport,31.28700066,34.72299957,656,AS,IL,IL-D,Beersheba,BEV
2970,medium_airport,Beira Airport,-19.79640007,34.9076004,33,AF,MZ,MZ-S,Beira,BEW
2486,medium_airport,RAF Benson,51.61640167,-1.095829964,226,EU,GB,GB-ENG,Benson,BEX
5222,large_airport,Beirut Rafic Hariri International Airport,33.82089996,35.48839951,87,AS,LB,LB-JL,Beirut,BEY
30696,small_airport,Beru Airport,-1.354719996,176.0070038,6,OC,KI,KI-G,Beru,BEZ
41566,small_airport,Aeródromo de Bahía Negra,-20.2246,-58.179528,277,SA,PY,PY-16,Bahía Negra,BFA
27393,small_airport,Bloomfield River Airport,-15.87360001,145.3300018,,OC,AU,AU-QLD,,BFC
3399,medium_airport,Bradford Regional Airport,41.80310059,-78.64009857,2143,NA,US,US-PA,Bradford,BFD
2242,small_airport,Bielefeld Airport,51.964722,8.544444,454,EU,DE,DE-NW,Bielefeld,BFE
3400,medium_airport,Western Neb. Rgnl/William B. Heilig Airport,41.87400055,-103.5960007,3967,NA,US,US-NE,Scottsbluff,BFF
21250,small_airport,Bullfrog Basin Airport,37.547827,-110.712898,4167,NA,US,US-UT,Bullfrog,BFG
5870,medium_airport,Bacacheri Airport,-25.4051,-49.231998,3057,SA,BR,BR-PR,Curitiba,BFH
3401,medium_airport,Boeing Field King County International Airport,47.529999,-122.302002,21,NA,US,US-WA,Seattle,BFI
318169,medium_airport,Bijie Feixiong Airport,27.267066,105.472097,4751,AS,CN,CN-52,Bijie,BFJ
3413,medium_airport,Buckley Space Force Base,39.701698,-104.751999,5662,NA,US,US-CO,Aurora,BFK
3402,medium_airport,Meadows Field,35.433601,-119.056999,510,NA,US,US-CA,Bakersfield,BFL
3403,medium_airport,Mobile Downtown Airport,30.62680054,-88.06809998,26,NA,US,US-AL,Mobile,BFM
2772,medium_airport,Bram Fischer International Airport,-29.092699,26.302401,4457,AF,ZA,ZA-FS,Bloemfontain,BFN
3003,medium_airport,Buffalo Range Airport,-21.008101,31.5786,1421,AF,ZW,ZW-MV,Chiredzi,BFO
19417,medium_airport,Beaver County Airport,40.772499,-80.391403,1253,NA,US,US-PA,Beaver Falls,BFP
35194,small_airport,Bahia Piña Airport,7.586764,-78.180251,14,NA,PA,PA-5,Bahia Piña,BFQ
19368,small_airport,Virgil I Grissom Municipal Airport,38.84000015,-86.44539642,727,NA,US,US-IN,Bedford,BFR
2385,large_airport,Belfast International Airport,54.65750122,-6.215829849,268,EU,GB,GB-NIR,Belfast,BFS
19028,small_airport,Beaufort Executive Airport,32.412201,-80.634399,10,NA,US,US-SC,Beaufort,BFT
301883,medium_airport,Bengbu Airport,32.84773333,117.3202444,100,AS,CN,CN-34,Bengbu,BFU
26684,medium_airport,Buri Ram Airport,15.22949982,103.2529984,590,AS,TH,TH-31,,BFV
2073,small_airport,Sidi Bel Abbes Airport,35.17179871,-0.593275011,1614,AF,DZ,DZ-22,Sidi Bel Abbès,BFW
2887,medium_airport,Bafoussam Airport,5.536920071,10.35459995,4347,AF,CM,CM-OU,Bafoussam,BFX
6102,medium_airport,Palonegro Airport,7.1265,-73.1848,3897,SA,CO,CO-SAN,Bucaramanga,BGA
30698,small_airport,Booue Airport,-0.1075,11.9438,604,AF,GA,GA-6,Booue,BGB
4440,medium_airport,Bragança Airport,41.8578,-6.70713,2241,EU,PT,PT-04,Bragança,BGC
19370,small_airport,Hutchinson County Airport,35.70090103,-101.3939972,3055,NA,US,US-TX,Borger,BGD
19371,small_airport,Decatur County Industrial Air Park,30.9715004,-84.63739777,141,NA,US,US-GA,Bainbridge,BGE
2873,medium_airport,Bangui M'Poko International Airport,4.398479939,18.51880074,1208,AF,CF,CF-MP,Bangui,BGF
44781,small_airport,Bingöl Çeltiksuyu Airport,38.85926056,40.59596252,3506,AS,TR,TR-12,Bingöl,BGG
30699,small_airport,Abbaye Airport,16.63331413,-14.20000076,66,AF,MR,MR-05,Boghe,BGH
6360,medium_airport,Grantley Adams International Airport,13.0746,-59.4925,169,NA,BB,BB-01,Bridgetown,BGI
30700,small_airport,Borgarfjörður eystri Airport,65.516769,-13.81578,80,EU,IS,IS-7,Borgarfjörður eystri,BGJ
42216,medium_airport,Big Creek Airport,16.519369,-88.407913,22,NA,BZ,BZ-SC,Big Creek,BGK
30701,small_airport,Baglung Airport,28.21279907,83.66629791,3320,AS,NP,NP-P4,Baglung,BGL
3404,medium_airport,Greater Binghamton/Edwin A Link field,42.20869827,-75.97979736,1636,NA,US,US-NY,Binghamton,BGM
43667,medium_airport,Belaya Gora Airport,68.556227,146.22784,118,EU,RU,RU-SA,Belaya Gora,BGN
2570,large_airport,"Bergen Airport, Flesland",60.2934,5.21814,170,EU,NO,NO-46,Bergen,BGO
16499,small_airport,Big Lake Airport,61.534658,-149.812936,158,NA,US,US-AK,Big Lake,BGQ
3405,medium_airport,Bangor International Airport,44.8074,-68.828102,192,NA,US,US-ME,Bangor,BGR
19701,small_airport,Bagdad Airport,34.592796,-113.171993,4183,NA,US,US-AZ,Bagdad,BGT
30703,small_airport,Bangassou Airport,4.784999847,22.78100014,1706,AF,CF,CF-MB,Bangassou,BGU
37401,small_airport,Aeroclube de Bento Gonçalves Airport,-29.147424,-51.540791,2209,SA,BR,BR-RS,Bento Gonçalves,BGV
5289,large_airport,Baghdad International Airport / New Al Muthana Air Base,33.262501,44.2346,114,AS,IQ,IQ-BG,Baghdad,BGW
5868,medium_airport,Comandante Gustavo Kraemer Airport,-31.390499,-54.112202,600,SA,BR,BR-RS,Bagé,BGX
4341,large_airport,Milan Bergamo Airport,45.673901,9.70417,782,EU,IT,IT-25,Milan,BGY
4442,medium_airport,Braga Municipal Aerodrome,41.58710098,-8.445139885,247,EU,PT,PT-03,Braga,BGZ
6080,small_airport,Los Perales Airport,-0.608111024,-80.40270233,10,SA,EC,EC-M,Bahía de Caraquez,BHA
19373,medium_airport,Hancock County-Bar Harbor Airport,44.45000076,-68.3615036,83,NA,US,US-ME,Bar Harbor,BHB
41628,small_airport,Bhurban Heliport,33.96099854,73.45200348,5750,AS,PK,PK-KP,Bhurban,BHC
2387,medium_airport,George Best Belfast City Airport,54.618099,-5.8725,15,EU,GB,GB-NIR,Belfast,BHD
5058,medium_airport,Woodbourne Airport,-41.5182991,173.8699951,109,OC,NZ,NZ-MBH,Blenheim,BHE
41080,small_airport,Bahia Cupica Airport,6.55,-77.3263,200,SA,CO,CO-CHO,Bahía Cupica,BHF
30704,small_airport,Brus Laguna Airport,15.7631,-84.543602,19,NA,HN,HN-GD,Brus Laguna,BHG
5085,medium_airport,Bisha Airport,19.9843998,42.6208992,3887,AS,SA,SA-14,,BHH
5840,medium_airport,Comandante Espora Airport,-38.725,-62.1693,246,SA,AR,AR-B,Bahia Blanca,BHI
26436,medium_airport,Bhuj Airport,23.28779984,69.67019653,268,AS,IN,IN-GJ,Bhuj,BHJ
26388,medium_airport,Bukhara International Airport,39.775002,64.483299,751,AS,UZ,UZ-BU,Bukhara,BHK
30705,small_airport,Bahía de los Ángeles Airport,28.9786,-113.560997,34,NA,MX,MX-BCN,Ensenada,BHL
3406,medium_airport,Birmingham-Shuttlesworth International Airport,33.562901,-86.753502,650,NA,US,US-AL,Birmingham,BHM
5314,small_airport,Beihan Airport,14.781714,45.719703,3800,AS,YE,YE-SH,Beihan,BHN
26439,medium_airport,Raja Bhoj International Airport,23.28750038,77.33740234,1711,AS,IN,IN-MP,Bhopal,BHO
30706,small_airport,Bhojpur Airport,27.1473999,87.05079651,4000,AS,NP,NP-P1,Bhojpur,BHP
26908,medium_airport,Broken Hill Airport,-32.00139999,141.4720001,958,OC,AU,AU-NSW,Broken Hill,BHQ
30707,small_airport,Bharatpur Airport,27.678101,84.429398,600,AS,NP,NP-P3,Bharatpur,BHR
26932,medium_airport,Bathurst Airport,-33.406817,149.651161,2435,OC,AU,AU-NSW,Bathurst,BHS
302410,small_airport,Brighton Downs Airport,-23.36388889,141.5627778,390,OC,AU,AU-QLD,,BHT
26440,medium_airport,Bhavnagar Airport,21.75219917,72.18520355,44,AS,IN,IN-GJ,Bhavnagar,BHU
5247,medium_airport,Bahawalpur Airport,29.34810066,71.71800232,392,AS,PK,PK-PB,Bahawalpur,BHV
5246,small_airport,Bhagatanwala Airport,32.05609894,72.9484024,600,AS,PK,PK-PB,Bhagatanwala,BHW
2389,large_airport,Birmingham International Airport,52.45389938,-1.748029947,327,EU,GB,GB-ENG,Birmingham,BHX
30708,small_airport,Beihai Fucheng Airport,21.5394,109.293999,,AS,CN,CN-45,Beihai (Yinhai),BHY
4123,medium_airport,Bastia-Poretta Airport,42.55270004,9.483730316,26,EU,FR,FR-COR,Bastia/Poretta,BIA
30711,small_airport,Baidoa Airport,3.10192,43.627137,1820,AF,SO,SO-BY,Baidoa,BIB
28818,small_airport,Aérodrome de Belle Île,47.325256,-3.201255,171,EU,FR,FR-BRE,Bangor,BIC
16500,small_airport,Block Island State Airport,41.16809845,-71.57779694,108,NA,US,US-RI,Block Island,BID
19376,small_airport,Beatrice Municipal Airport,40.30130005,-96.75409698,1324,NA,US,US-NE,Beatrice,BIE
3407,medium_airport,Biggs Army Air Field (Fort Bliss),31.84950066,-106.3799973,3946,NA,US,US-TX,Fort Bliss/El Paso,BIF
5339,medium_airport,Allen Army Airfield,63.99449921,-145.7220001,1291,NA,US,US-AK,Delta Junction Ft Greely,BIG
19377,medium_airport,Eastern Sierra Regional Airport,37.37310028,-118.3639984,4124,NA,US,US-CA,Bishop,BIH
30730,small_airport,Enyu Airfield,11.5225,165.565002,,OC,MH,MH-BIK,Bikini Atoll,BII
26746,medium_airport,Frans Kaisiepo Airport,-1.19002,136.108002,46,AS,ID,ID-PA,Biak,BIK
3408,medium_airport,Billings Logan International Airport,45.807701,-108.542999,3652,NA,US,US-MT,Billings,BIL
4935,medium_airport,South Bimini Airport,25.69989967,-79.26470184,10,NA,BS,BS-BI,South Bimini,BIM
30739,small_airport,Bamyan Airport,34.808916,67.816629,8367,AS,AF,AF-BAM,Bamyan,BIN
4001,medium_airport,Bilbao Airport,43.301102,-2.91061,138,EU,ES,ES-PV,Bilbao,BIO
38266,small_airport,Bulimba Airport,-16.88080025,143.4790039,470,OC,AU,AU-QLD,,BIP
4077,medium_airport,Biarritz-Anglet-Bayonne Airport,43.4683333,-1.5311111,245,EU,FR,FR-NAQ,Biarritz/Anglet/Bayonne,BIQ
26600,medium_airport,Biratnagar Airport,26.48150063,87.26399994,236,AS,NP,NP-P1,Biratnagar,BIR
3409,medium_airport,Bismarck Municipal Airport,46.77270126,-100.7460022,1661,NA,US,US-ND,Bismarck,BIS
30753,small_airport,Baitadi Airport,29.463421,80.548968,4200,AS,NP,NP-P7,Baitadi,BIT
118,small_airport,Bildudalur Airport,65.64129639,-23.5461998,18,EU,IS,IS-4,Bildudalur,BIU
30756,small_airport,Bria Airport,6.527780056,21.98940086,1975,AF,CF,CF-HK,Bria,BIV
38249,small_airport,Billiluna Airport,-19.56669998,127.6669998,1000,OC,AU,AU-WA,,BIW
3410,medium_airport,Keesler Air Force Base,30.41040039,-88.92440033,33,NA,US,US-MS,Biloxi,BIX
2771,medium_airport,Bisho Airport,-32.89709854,27.27910042,1950,AF,ZA,ZA-EC,Bisho,BIY
2049,medium_airport,Soummam–Abane Ramdane Airport,36.711952,5.069804,20,AF,DZ,DZ-06,Béjaïa,BJA
5184,medium_airport,Bojnord Airport,37.49300003,57.30820084,3499,AS,IR,IR-28,Bojnord,BJB
3411,medium_airport,Rocky Mountain Metropolitan Airport,39.90879822,-105.1169968,5673,NA,US,US-CO,Denver,BJC
30759,small_airport,Bakkafjörður Airport,66.02189636,-14.82439995,14,EU,IS,IS-6,Bakkafjörður,BJD
300790,small_airport,Baleela Airport,11.19944444,28.52305556,1690,AF,SD,SD-13,Baleela Base Camp,BJE
2571,medium_airport,Båtsfjord Airport,70.60050201,29.69140053,490,EU,NO,NO-54,Båtsfjord,BJF
41366,small_airport,Boalang Airport,-0.97289598,122.1449966,146,AS,ID,ID-ST,Boalang-Celebes Island,BJG
30760,small_airport,Bajhang Airport,29.53899956,81.18540192,4100,AS,NP,NP-P7,Bajhang,BJH
19380,medium_airport,Bemidji Regional Airport,47.50939941,-94.93370056,1391,NA,US,US-MN,Bemidji,BJI
19381,small_airport,Wayne County Airport,40.87480164,-81.88829803,1136,NA,US,US-OH,Wooster,BJJ
26782,small_airport,Nangasuri Airport,-6.06613,134.273971,82,AS,ID,ID-MA,Maikoor Island,BJK
3076,large_airport,Banjul International Airport,13.338,-16.652201,95,AF,GM,GM-W,Banjul,BJL
3170,medium_airport,Bujumbura Melchior Ndadaye International Airport,-3.32402,29.318501,2582,AF,BI,BI-BM,Bujumbura,BJM
6179,medium_airport,Bermejo Airport,-22.77330017,-64.31289673,1249,SA,BO,BO-T,Bermejo,BJO
46245,small_airport,Estadual Arthur Siqueira Airport,-22.978822,-46.537131,2887,SA,BR,BR-SP,Bragança Paulista,BJP
300791,small_airport,Bahja Airport,19.87305556,56.06777778,515,AS,OM,OM-WU,Bahja,BJQ
3161,medium_airport,Bahir Dar Airport,11.6081,37.321602,5978,AF,ET,ET-AM,Bahir Dar,BJR
312172,seaplane_base,Bentota River Waterdrome,6.431,79.996,,AS,LK,LK-1,Bentota,BJT
30761,small_airport,Bajura Airport,29.50200081,81.66899872,4300,AS,NP,NP-P7,Bajura,BJU
4567,large_airport,Milas Bodrum International Airport,37.25059891,27.66430092,21,AS,TR,TR-48,Bodrum,BJV
42249,small_airport,Bajawa Soa Airport,-8.707435,121.057427,4326,AS,ID,ID-NT,Soa,BJW
4722,large_airport,Aeropuerto Internacional Del Bajío,20.985813,-101.478825,5956,NA,MX,MX-GUA,Ciudad de Silao,BJX
4611,medium_airport,Batajnica Air Base,44.935299,20.2575,265,EU,RS,RS-07,Batajnica,BJY
4005,medium_airport,Badajoz Airport,38.8913,-6.82133,609,EU,ES,ES-EX,Badajoz,BJZ
26543,medium_airport,Nal Airport,28.07060051,73.2071991,750,AS,IN,IN-RJ,Bikaner,BKB
5340,medium_airport,Buckland Airport,65.981598,-161.149002,31,NA,US,US-AK,Buckland,BKC
19382,small_airport,Stephens County Airport,32.71900177,-98.89099884,1284,NA,US,US-TX,Breckenridge,BKD
3412,medium_airport,Baker City Municipal Airport,44.83729935,-117.8089981,3373,NA,US,US-OR,Baker City,BKE
12764,seaplane_base,Lake Brooks Seaplane Base,58.55479813,-155.7769928,36,NA,US,US-AK,Katmai National Park,BKF
45961,small_airport,Branson Airport,36.532082,-93.200544,1302,NA,US,US-MO,Branson,BKG
5441,medium_airport,Barking Sands Airport,22.0228,-159.785004,23,OC,US,US-HI,Kekaha,BKH
26814,medium_airport,Kota Kinabalu International Airport,5.932743,116.049324,10,AS,MY,MY-12,Kota Kinabalu,BKI
30763,small_airport,Boké Baralande Airport,10.9658,-14.2811,164,AF,GN,GN-B,Boké,BKJ
28118,large_airport,Suvarnabhumi Airport,13.68109989,100.7470016,5,AS,TH,TH-10,Bangkok,BKK
3414,medium_airport,Burke Lakefront Airport,41.51750183,-81.6832962,583,NA,US,US-OH,Cleveland,BKL
30764,small_airport,Bakalalan Airport,3.973999977,115.6179962,2900,AS,MY,MY-13,Bakalalan,BKM
6393,small_airport,Balkanabat Airport,39.480598,54.366001,5,AS,TM,TM-B,Balkanabat,BKN
3066,large_airport,Modibo Keita International Airport,12.5335,-7.94994,1247,AF,ML,ML-2,Bamako,BKO
27356,small_airport,Barkly Downs Airport,-20.49583333,138.4747222,810,OC,AU,AU-QLD,,BKP
26903,medium_airport,Blackall Airport,-24.431678,145.429716,928,OC,AU,AU-QLD,Blackall,BKQ
30765,small_airport,Bokoro Airport,12.385511,17.070989,984,AF,TD,TD-HL,Bokoro,BKR
26853,medium_airport,Fatmawati Soekarno Airport,-3.8637,102.338997,50,AS,ID,ID-BE,Bengkulu,BKS
19384,small_airport,Allen C Perkinson Blackstone Army Air Field,37.07419968,-77.95749664,439,NA,US,US-VA,Blackstone,BKT
30766,small_airport,Betioky Airport,-23.7329998,44.38899994,919,AF,MG,MG-U,Betioky,BKU
3415,medium_airport,Raleigh County Memorial Airport,37.78730011,-81.12419891,2504,NA,US,US-WV,Beckley,BKW
19386,small_airport,Brookings Regional Airport,44.304798,-96.816902,1648,NA,US,US-SD,Brookings,BKX
3056,medium_airport,Bukavu Kavumu Airport,-2.30898,28.8088,5643,AF,CD,CD-SK,Kamakombe,BKY
30767,small_airport,Bukoba Airport,-1.332,31.8212,3784,AF,TZ,TZ-05,Bukoba,BKZ
6255,large_airport,General José Antonio Anzoategui International Airport,10.111111,-64.692222,30,SA,VE,VE-B,Barcelona,BLA
30768,small_airport,Panamá Pacífico International Airport,8.91479,-79.599602,52,NA,PA,PA-10,Panamá City,BLB
302411,small_airport,Bali Airport,5.895277778,10.03388889,4465,AF,CM,CM-NW,Bali,BLC
18945,medium_airport,Boulder City Municipal Airport,35.947498,-114.861,2201,NA,US,US-NV,Boulder City,BLD
2703,medium_airport,Dala Airport,60.422001,15.5152,503,EU,SE,SE-W,Borlange,BLE
19387,medium_airport,Mercer County Airport,37.295799,-81.207703,2857,NA,US,US-WV,Bluefield,BLF
30770,small_airport,Belaga Airport,2.652143,113.767043,200,AS,MY,MY-13,Belaga,BLG
19388,medium_airport,Blythe Airport,33.61920166,-114.7170029,399,NA,US,US-CA,Blythe,BLH
3416,medium_airport,Bellingham International Airport,48.7928009,-122.538002,170,NA,US,US-WA,Bellingham,BLI
2063,medium_airport,Batna Mostefa Ben Boulaid Airport,35.752102,6.30859,2697,AF,DZ,DZ-05,Batna,BLJ
2441,medium_airport,Blackpool International Airport,53.77170181,-3.028609991,34,EU,GB,GB-ENG,Blackpool,BLK
2541,large_airport,Billund Airport,55.74029922,9.151780128,247,EU,DK,DK-83,Billund,BLL
19389,small_airport,Monmouth Executive Airport,40.18690109,-74.12490082,153,NA,US,US-NJ,Belmar/Farmingdale,BLM
26914,medium_airport,Benalla Airport,-36.551899,146.007004,569,OC,AU,AU-VIC,,BLN
30771,small_airport,Hjaltabakki Airport,65.64499664,-20.28750038,131,EU,IS,IS-5,Blönduós,BLO
30772,small_airport,Huallaga Airport,-7.060560226,-76.5821991,980,SA,PE,PE-SAM,Bellavista,BLP
4354,large_airport,Bologna Guglielmo Marconi Airport,44.5354,11.2887,123,EU,IT,IT-45,Bologna,BLQ
35145,large_airport,Kempegowda International Airport,13.1979,77.706299,3000,AS,IN,IN-KA,Bangalore,BLR
27391,small_airport,Bollon Airport,-28.051247,147.481799,182,OC,AU,AU-QLD,,BLS
26935,medium_airport,Blackwater Airport,-23.60309982,148.8070068,657,OC,AU,AU-QLD,,BLT
19390,small_airport,Blue Canyon Nyack Airport,39.27500153,-120.7099991,5284,NA,US,US-CA,Emigrant Gap,BLU
3417,medium_airport,Scott AFB/Midamerica Airport,38.5452,-89.835197,459,NA,US,US-IL,Belleville,BLV
31572,small_airport,Beledweyne Airport,4.766976,45.2388,559,AF,SO,SO-HI,Beledweyne,BLW
29417,small_airport,Belluno Airport,46.166549,12.250389,1240,EU,IT,IT-34,Belluno (BL),BLX
29216,small_airport,Belmullet Aerodrome,54.22280121,-10.03079987,150,EU,IE,IE-MO,Belmullet,BLY
3015,medium_airport,Chileka International Airport,-15.67910004,34.97399902,2555,AF,MW,MW-BL,Blantyre,BLZ
2702,medium_airport,Stockholm-Bromma Airport,59.35440063,17.94169998,47,EU,SE,SE-AB,Stockholm,BMA
30773,small_airport,Bumbar Airport,2.183261,22.479572,,AF,CD,CD-MO,Bumbar,BMB
19391,small_airport,Brigham City Regional Airport,41.552399,-112.061996,4229,NA,US,US-UT,Brigham City,BMC
30774,small_airport,Belo sur Tsiribihina Airport,-19.68670082,44.54190063,154,AF,MG,MG-U,Belo sur Tsiribihina,BMD
26927,medium_airport,Broome International Airport,-17.948789,122.227407,56,OC,AU,AU-WA,Broome,BME
30775,small_airport,Bakouma Airport,5.693999767,22.8010006,1640,AF,CF,CF-MB,Bakouma,BMF
3418,medium_airport,Monroe County Airport,39.14599991,-86.61669922,846,NA,US,US-IN,Bloomington,BMG
302041,small_airport,Bomai Airport,-6.373166667,144.637,3300,OC,PG,PG-CPK,Bomai,BMH
3419,medium_airport,Central Illinois Regional Airport at Bloomington-Normal,40.4771,-88.915901,871,NA,US,US-IL,Bloomington/Normal,BMI
41511,small_airport,Baramita Airport,7.370120049,-60.48799896,328,SA,GY,GY-BA,Baramita,BMJ
2291,small_airport,Borkum Airport,53.59639,6.709167,3,EU,DE,DE-NI,Borkum,BMK
19392,small_airport,Berlin Regional Airport,44.57540131,-71.17590332,1161,NA,US,US-NH,Berlin,BML
2962,medium_airport,Bitam Airport,2.075639963,11.4932003,1969,AF,GA,GA-9,Bitam,BMM
30776,small_airport,Bamarni Airport,37.09880066,43.26660156,3455,AS,IQ,IQ-DA,Bamarni,BMN
26713,small_airport,Banmaw Airport,24.27044,97.2476,370,AS,MM,MM-11,Banmaw,BMO
27409,small_airport,Brampton Island Airport,-20.804633,149.279931,11,OC,AU,AU-QLD,,BMP
28482,small_airport,Bamburi Airport,-3.983363,39.730982,52,AF,KE,KE-300,Bamburi,BMQ
28520,small_airport,Baltrum Airport,53.72472382,7.373332977,7,EU,DE,DE-NI,Baltrum,BMR
285,small_airport,Sócrates Mariani Bittencourt Airport,-14.2554,-41.817501,1673,SA,BR,BR-BA,Brumado,BMS
19394,small_airport,Beaumont Municipal Airport,30.070635,-94.215746,32,NA,US,US-TX,Beaumont,BMT
26750,small_airport,Sultan Muhammad Salahuddin Airport,-8.537184,118.685002,3,AS,ID,ID-NB,Bima,BMU
26690,medium_airport,Buon Ma Thuot Airport,12.66829968,108.1200027,1729,AS,VN,VN-CH,Buon Ma Thuot,BMV
30777,small_airport,Bordj Badji Mokhtar Airport,21.3778,0.92698,1303,AF,DZ,DZ-52,Bordj Badji Mokhtar,BMW
5341,small_airport,Big Mountain Airport,59.362274,-155.260148,663,NA,US,US-AK,Big Mountain,BMX
30778,medium_airport,Île Art - Waala Airport,-19.720521,163.661077,306,OC,NC,NC-U-A,Waala,BMY
302044,small_airport,Bamu Airport,-7.8485,143.2433,50,OC,PG,PG-WPD,Bamu,BMZ
3420,large_airport,Nashville International Airport,36.12450027,-86.67819977,599,NA,US,US-TN,Nashville,BNA
30779,small_airport,Boende Airport,-0.286652,20.883551,1168,AF,CD,CD-TU,Boende,BNB
30780,small_airport,Beni Airport,0.575,29.4739,3517,AF,CD,CD-NK,Beni,BNC
5172,medium_airport,Bandar Abbas International Airport,27.21829987,56.37779999,22,AS,IR,IR-22,Bandar Abbas,BND
26901,large_airport,Brisbane International Airport,-27.38419914,153.1170044,13,OC,AU,AU-QLD,Brisbane,BNE
16502,seaplane_base,Baranof Warm Springs Float and Seaplane Base,57.088799,-134.833146,0,NA,US,US-AK,Baranof,BNF
19395,small_airport,Banning Municipal Airport,33.922548,-116.850672,2219,NA,US,US-CA,Banning,BNG
321938,seaplane_base,Cape Air Seaplanes on Boston Harbor Seaplane Base,42.352502,-71.025832,0,NA,US,US-MA,Boston,BNH
2106,medium_airport,Benin Airport,6.316979885,5.599500179,258,AF,NG,NG-ED,Benin,BNI
28532,small_airport,Bonn-Hangelar Airport,50.76889038,7.163332939,197,EU,DE,DE-NW,Bonn,BNJ
26920,medium_airport,Ballina Byron Gateway Airport,-28.833236,153.561471,7,OC,AU,AU-NSW,Ballina,BNK
19396,small_airport,Barnwell Regional Airport,33.25780106,-81.38829803,246,NA,US,US-SC,Barnwell,BNL
301975,small_airport,Bodinumu Airport,-9.107777778,147.6667222,3700,OC,PG,PG-CPM,Bodinumu,BNM
2568,medium_airport,"Brønnøysund Airport, Brønnøy",65.461098,12.2175,25,EU,NO,NO-18,Brønnøy,BNN
19397,medium_airport,Burns Municipal Airport,43.590463,-118.955154,4148,NA,US,US-OR,Burns,BNO
30781,small_airport,Bannu Airport,32.9729,70.527901,1325,AS,PK,PK-KP,Bannu,BNP
30782,small_airport,Banfora Airport,10.688861,-4.727726,984,AF,BF,BF-COM,Banfora,BNR
6256,medium_airport,Barinas Airport,8.615,-70.21416667,615,SA,VE,VE-E,Barinas,BNS
302046,small_airport,Bundi Airport,-5.742222222,145.2275,4400,OC,PG,PG-MPM,Bundi,BNT
436,small_airport,Blumenau Airport,-26.831661,-49.093569,60,SA,BR,BR-SC,Blumenau,BNU
19398,small_airport,Boone Municipal Airport,42.04959869,-93.84760284,1160,NA,US,US-IA,Boone,BNW
4467,medium_airport,Banja Luka International Airport,44.94139862,17.29750061,400,EU,BA,BA-SRP,Banja Luka,BNX
302047,small_airport,Bellona/Anua Airport,-11.30222222,159.7983333,60,OC,SB,SB-RB,Anua,BNY
30783,small_airport,Boma Airport,-5.854,13.064,26,AF,CD,CD-KO,Boma,BOA
5003,medium_airport,Bora Bora Airport,-16.44440079,-151.7510071,10,OC,PF,PF-U-A,Motu Mute,BOB
4786,medium_airport,Bocas del Toro International Airport,9.34085,-82.250801,10,NA,PA,PA-1,Isla Colón,BOC
4060,large_airport,Bordeaux-Mérignac Airport,44.8283,-0.715556,162,EU,FR,FR-NAQ,Bordeaux/Mérignac,BOD
30784,small_airport,Boundji Airport,-1.032999992,15.38300037,1247,AF,CG,CG-8,Boundji,BOE
16503,heliport,Bolling Air Force Base,38.854049,-77.012046,20,NA,US,US-DC,Washington,BOF
6104,large_airport,El Dorado International Airport,4.70159,-74.1469,8361,SA,CO,CO-CUN,Bogota,BOG
2421,medium_airport,Bournemouth Airport,50.779999,-1.8425,38,EU,GB,GB-ENG,Bournemouth,BOH
3421,medium_airport,Boise Air Terminal/Gowen Field,43.5644,-116.223,2871,NA,US,US-ID,Boise,BOI
3974,large_airport,Burgas Airport,42.56959915,27.51519966,135,EU,BG,BG-02,Burgas,BOJ
16504,small_airport,Brookings Airport,42.0746,-124.290001,459,NA,US,US-OR,Brookings,BOK
26434,large_airport,Chhatrapati Shivaji International Airport,19.08869934,72.86789703,39,AS,IN,IN-MM,Mumbai,BOM
6403,large_airport,Flamingo International Airport,12.131,-68.268501,20,NA,BQ,BQ-U-A,"Kralendijk, Bonaire",BON
2569,medium_airport,Bodø Airport,67.269203,14.3653,42,EU,NO,NO-18,Bodø,BOO
30785,small_airport,Bouar Airport,5.958000183,15.63700008,3360,AF,CF,CF-NM,Bouar,BOP
3422,large_airport,Logan International Airport,42.3643,-71.005203,20,NA,US,US-MA,Boston,BOS
301979,small_airport,Bosset Airport,-7.237257,141.1063222,80,OC,PG,PG-WPD,Bosset,BOT
4133,medium_airport,Bourges Airport,47.05810165,2.370280027,529,EU,FR,FR-CVL,Bourges,BOU
312780,small_airport,Boang Airport,-3.3834,153.2812,85,OC,PG,PG-NIK,Boang Island,BOV
19399,small_airport,Bartow Executive Airport,27.943399,-81.783401,125,NA,US,US-FL,Bartow,BOW
26926,small_airport,Borroloola Airport,-16.07530022,136.302002,55,OC,AU,AU-NT,,BOX
2089,medium_airport,Bobo Dioulasso Airport,11.16009998,-4.33096981,1511,AF,BF,BF-HOU,Bobo Dioulasso,BOY
30787,small_airport,Bozoum Airport,6.344170094,16.32189941,2215,AF,CF,CF-OP,Bozoum,BOZ
2888,medium_airport,Bamenda Airport,6.039239883,10.1225996,4065,AF,CM,CM-NW,Bamenda,BPC
301792,small_airport,Bapi Airstrip,-7.743611111,147.0205556,2930,OC,PG,PG-MPL,Bapi,BPD
318174,medium_airport,Qinhuangdao Beidaihe Airport,39.666389,119.058889,46,AS,CN,CN-13,Qinhuangdao,BPE
302402,small_airport,Batuna Aerodrome,-8.562027778,158.1193056,24,OC,SB,SB-WE,Batuna Mission Station,BPF
5876,medium_airport,Barra do Garças Airport,-15.861417,-52.389008,1147,SA,BR,BR-MT,Barra do Garças,BPG
5699,medium_airport,Bislig Airport,8.195052,126.321015,12,AS,PH,PH-SUR,Bislig,BPH
19401,medium_airport,Miley Memorial Field,42.58509827,-110.1110001,6990,NA,US,US-WY,Big Piney,BPI
301804,small_airport,Biangabip Airport,-5.526388889,141.7445833,1069,OC,PG,PG-WPD,Biangabip,BPK
46650,medium_airport,Bole Alashankou Airport,44.895461,82.30007,1253,AS,CN,CN-65,Bole,BPL
26615,medium_airport,Begumpet Airport,17.4531,78.467598,1742,AS,IN,IN-TG,Hyderabad,BPM
26760,large_airport,Sultan Aji Muhammad Sulaiman Sepinggan International Airport,-1.268342,116.89452,12,AS,ID,ID-KI,Balikpapan,BPN
5961,medium_airport,Porto Seguro Airport,-16.438426,-39.080584,169,SA,BR,BR-BA,Porto Seguro,BPS
3423,medium_airport,Jack Brooks Regional Airport,29.9508,-94.020699,15,NA,US,US-TX,Beaumont/Port Arthur,BPT
30788,medium_airport,Qamdo Bangda Airport,30.55360031,97.10829926,14219,AS,CN,CN-54,Bangda,BPX
2921,medium_airport,Besalampy Airport,-16.74453,44.482484,125,AF,MG,MG-M,Besalampy,BPY
5725,medium_airport,Dr Juan C Angara Airport,15.729309,121.500034,108,AS,PH,PH-AUR,Baler,BQA
26915,small_airport,Busselton Margaret River Regional Airport,-33.688423,115.401596,55,OC,AU,AU-WA,Busselton,BQB
30789,small_airport,Búðardalur Airport,65.07530212,-21.8003006,131,EU,IS,IS-3,Búðardalur,BQD
39587,small_airport,Bubaque Airport,11.29735565,-15.83807945,,AF,GW,GW-BL,Bubaque,BQE
45189,small_airport,Bogorodskoye Airport,52.381041,140.449378,,EU,RU,RU-KHA,Bogorodskoye,BQG
2428,medium_airport,London Biggin Hill Airport,51.3307991,0.032499999,598,EU,GB,GB-ENG,London,BQH
29549,small_airport,Bagani Airport,-18.11848,21.623296,3314,AF,NA,NA-KE,Bagani,BQI
32507,small_airport,Batagay Airport,67.64800262,134.6950073,696,AS,RU,RU-SA,Batagay,BQJ
3424,medium_airport,Brunswick Golden Isles Airport,31.25880051,-81.46649933,26,NA,US,US-GA,Brunswick,BQK
26923,medium_airport,Boulia Airport,-22.91329956,139.8999939,542,OC,AU,AU-QLD,,BQL
6379,medium_airport,Rafael Hernández International Airport,18.4949,-67.129402,237,NA,PR,PR-U-A,Aguadilla,BQN
30790,small_airport,Bouna Airport,9.277500153,-3.025279999,1148,AF,CI,CI-ZZ,Bouna,BQO
287,small_airport,Barra Airport,-11.08080006,-43.14749908,1345,SA,BR,BR-BA,Barra,BQQ
6454,medium_airport,Ignatyevo Airport,50.42539978,127.4120026,638,AS,RU,RU-AMU,Blagoveschensk,BQS
6495,medium_airport,Brest Airport,52.108299,23.8981,468,EU,BY,BY-BR,Brest,BQT
6412,medium_airport,J F Mitchell Airport,12.9884,-61.262001,15,NA,VC,VC-06,Bequia,BQU
16505,seaplane_base,Bartlett Cove Seaplane Base,58.4552002,-135.8849945,0,NA,US,US-AK,Gustavus,BQV
27375,small_airport,Balgo Hill Airport,-20.1483,127.973,1440,OC,AU,AU-WA,Balgo,BQW
283,small_airport,Barreiras Airport,-12.07890034,-45.00899887,2447,SA,BR,BR-BA,Barreiras,BRA
299169,small_airport,Barreirinhas National Airport,-2.756628,-42.805666,40,SA,BR,BR-MA,Barreirinhas,BRB
5852,medium_airport,San Carlos De Bariloche Airport,-41.151199,-71.157501,2774,SA,AR,AR-R,San Carlos de Bariloche,BRC
19406,medium_airport,Brainerd Lakes Regional Airport,46.402861,-94.129727,1232,NA,US,US-MN,Brainerd,BRD
2225,medium_airport,Bremen Airport,53.047501,8.78667,14,EU,DE,DE-HB,Bremen,BRE
430172,small_airport,Siau/Sitaro Airport,2.648591,125.423301,155,AS,ID,ID-SA,Balirangen,BRG
4310,large_airport,Bari Karol Wojtyła Airport,41.138901,16.760599,177,EU,IT,IT-75,Bari,BRI
26912,medium_airport,Bourke Airport,-30.03919983,145.9519958,352,OC,AU,AU-NSW,,BRK
3425,medium_airport,Southeast Iowa Regional Airport,40.78319931,-91.12550354,698,NA,US,US-IA,Burlington,BRL
6259,medium_airport,Barquisimeto International Airport,10.04274654,-69.35861969,2042,SA,VE,VE-K,Barquisimeto,BRM
4503,medium_airport,Bern-Belp Airport,46.913419,7.499747,1671,EU,CH,CH-BE,Bern-Belp,BRN
3426,medium_airport,Brownsville South Padre Island International Airport,25.90679932,-97.42590332,22,NA,US,US-TX,Brownsville,BRO
311258,small_airport,Biaru Airport,-7.6693,146.7594,4900,OC,PG,PG-MPL,Biaru,BRP
4409,medium_airport,Brno-Tuřany Airport,49.15129852,16.69440079,778,EU,CZ,CZ-JM,Brno,BRQ
29173,medium_airport,Barra Airport,57.0228,-7.44306,5,EU,GB,GB-SCT,Eoligarry,BRR
2417,medium_airport,Bristol Airport,51.382702,-2.71909,622,EU,GB,GB-ENG,Bristol,BRS
26933,medium_airport,Bathurst Island Airport,-11.764966,130.615774,67,OC,AU,AU-NT,Wurrumiyanga,BRT
2155,large_airport,Brussels Airport,50.901402,4.48444,184,EU,BE,BE-BRU,Zaventem,BRU
5342,medium_airport,Wiley Post Will Rogers Memorial Airport,71.285402,-156.766008,44,NA,US,US-AK,Utqiaġvik,BRW
4632,medium_airport,Maria Montez International Airport,18.25149918,-71.12039948,10,NA,DO,DO-04,Barahona,BRX
19407,small_airport,Samuels Field,37.81430054,-85.49960327,669,NA,US,US-KY,Bardstown,BRY
30792,small_airport,Bosaso / Bender Qassim International Airport,11.275235,49.139231,3,AF,SO,SO-BR,Bosaso,BSA
5872,large_airport,Presidente Juscelino Kubitschek International Airport,-15.869167,-47.920834,3497,SA,BR,BR-DF,Brasília,BSB
6106,medium_airport,José Celestino Mutis Airport,6.20292,-77.3947,80,SA,CO,CO-CHO,Bahía Solano,BSC
44103,medium_airport,Baoshan Yunrui Airport,25.053301,99.168297,5453,AS,CN,CN-53,Baoshan (Longyang),BSD
30793,small_airport,Sematan Airport,1.812678,109.765391,22,AS,MY,MY-13,Sematan,BSE
5456,small_airport,Bradshaw Army Airfield,19.760099,-155.554001,6190,NA,US,US-HI,Waimea (Kamuela),BSF
2875,medium_airport,Bata Airport,1.90547,9.80568,13,AF,GQ,GQ-LI,Bata,BSG
324042,small_airport,Balesin Island Airport,14.419365,122.039402,25,AS,PH,PH-BAS,Balesin,BSI
26921,medium_airport,Bairnsdale Airport,-37.887539,147.569379,165,OC,AU,AU-VIC,Bairnsdale,BSJ
2076,medium_airport,Biskra - Mohamed Khider Airport,34.793301,5.73823,289,AF,DZ,DZ-07,Biskra,BSK
4226,large_airport,EuroAirport Basel-Mulhouse-Freiburg Airport,47.59,7.529167,885,EU,FR,FR-GES,Bâle/Mulhouse,BSL
5189,small_airport,Bishe Kola Air Base,36.65510178,52.34960175,-79,AS,IR,IR-02,Amol,BSM
30794,small_airport,Bossangoa Airport,6.492000103,17.42900085,1637,AF,CF,CF-AC,Bossangoa,BSN
5723,medium_airport,Basco Airport,20.4513,121.980003,291,AS,PH,PH-BTN,Basco,BSO
301802,small_airport,Bensbach Airport,-8.858055556,141.2594444,30,OC,PG,PG-WPD,Bensbach,BSP
20793,small_airport,Bisbee Municipal Airport,31.36400032,-109.8830032,4780,NA,US,US-AZ,Bisbee,BSQ
5294,medium_airport,Basra International Airport,30.549101,47.662102,11,AS,IQ,IQ-BA,Basra,BSR
284,small_airport,Balsas Airport,-7.526030064,-46.05329895,930,SA,BR,BR-MA,Balsas,BSS
30795,small_airport,Bost Airport,31.5597,64.364998,2464,AS,AF,AF-HEL,Lashkar Gah,BST
30796,small_airport,Basankusu Airport,1.22472,19.7889,1217,AF,CD,CD-EQ,Basankusu,BSU
302396,small_airport,Besakoa Airport,-15.6725,47.061667,40,AF,MG,MG-M,Besakoa,BSV
16188,small_airport,Boswell Bay Airport,60.42309952,-146.1459961,230,NA,US,US-AK,Boswell Bay,BSW
26736,small_airport,Pathein Airport,16.815201,94.7799,20,AS,MM,MM-07,Pathein,BSX
302296,small_airport,Baardheere Airport,2.330195,42.311802,396,AF,SO,SO-GE,Baardheere,BSY
30797,small_airport,Bertoua Airport,4.54861021,13.72609997,2133,AF,CM,CM-ES,Bertoua,BTA
30798,small_airport,Betou Airport,3.057593,18.514433,1168,AF,CG,CG-7,Betou,BTB
26465,medium_airport,Batticaloa Airport,7.70576,81.678802,20,AS,LK,LK-5,Batticaloa,BTC
27414,small_airport,Brunette Downs Airport,-18.637472,135.938355,700,OC,AU,AU-NT,,BTD
19409,small_airport,Skypark Airport,40.86940002,-111.927002,4234,NA,US,US-UT,Bountiful,BTF
30800,small_airport,Batangafo Airport,7.314109802,18.30879974,1378,AF,CF,CF-AC,Batangafo,BTG
26828,medium_airport,Hang Nadim International Airport,1.12103,104.119003,126,AS,ID,ID-RI,Batam,BTH
5337,medium_airport,Barter Island Long Range Radar Station Airport,70.134003,-143.582001,2,NA,US,US-AK,Barter Island,BTI
26862,medium_airport,Sultan Iskandar Muda International Airport,5.522872024,95.42063713,65,AS,ID,ID-AC,Banda Aceh,BTJ
6464,medium_airport,Bratsk Airport,56.37060165,101.697998,1610,AS,RU,RU-IRK,Bratsk,BTK
3427,medium_airport,Battle Creek Executive Airport at Kellogg Field,42.307301,-85.251503,952,NA,US,US-MI,Battle Creek,BTL
3428,medium_airport,Bert Mooney Airport,45.95479965,-112.4970016,5550,NA,US,US-MT,Butte,BTM
19354,small_airport,Marlboro County Jetport - H E Avent Field Airport,34.6217,-79.734398,147,NA,US,US-SC,Bennettsville,BTN
41501,small_airport,Botopasi Airport,4.217511094,-55.44705391,242,SA,SR,SR-SI,Botopasi,BTO
19411,small_airport,Pittsburgh/Butler Regional Airport,40.776901,-79.949699,1248,NA,US,US-PA,Butler,BTP
30801,small_airport,Butare Airport,-2.595829964,29.73670006,5801,AF,RW,RW-05,Butare,BTQ
3429,medium_airport,Baton Rouge Metropolitan Airport,30.533199,-91.149597,70,NA,US,US-LA,Baton Rouge,BTR
4617,large_airport,M. R. Štefánik Airport,48.17020035,17.21269989,436,EU,SK,SK-BL,Bratislava,BTS
5343,medium_airport,Bettles Airport,66.91390228,-151.529007,647,NA,US,US-AK,Bettles,BTT
26807,medium_airport,Bintulu Airport,3.123850107,113.0199966,74,AS,MY,MY-13,Bintulu,BTU
3430,medium_airport,Burlington International Airport,44.471901,-73.153297,335,NA,US,US-VT,South Burlington,BTV
26775,small_airport,Batu Licin Airport,-3.41241,115.995003,3,AS,ID,ID-KS,Batu Licin,BTW
27369,small_airport,Betoota Airport,-25.694791,140.738339,91,OC,AU,AU-QLD,,BTX
19412,small_airport,Beatty Airport,36.86109924,-116.7870026,3170,NA,US,US-NV,Beatty,BTY
353792,medium_airport,Betong International Airport,5.79,101.15,761,AS,TH,TH-95,Betong,BTZ
53,medium_airport,Buka Airport,-5.422319889,154.6730042,11,OC,PG,PG-NSB,Buka Island,BUA
19413,small_airport,Cram Field,41.77669907,-99.14969635,2182,NA,US,US-NE,Burwell,BUB
26913,small_airport,Burketown Airport,-17.74860001,139.5339966,21,OC,AU,AU-QLD,,BUC
4296,large_airport,Budapest Liszt Ferenc International Airport,47.42976,19.261093,495,EU,HU,HU-PE,Budapest,BUD
3431,large_airport,Buffalo Niagara International Airport,42.94049835,-78.73220062,728,NA,US,US-NY,Buffalo,BUF
2935,medium_airport,Benguela 17th of September Airport,-12.609,13.4037,118,AF,AO,AO-BGU,Benguela,BUG
41423,small_airport,Bokondini Airport,-3.68455,138.677437,4550,AS,ID,ID-PP,Bokondini,BUI
2048,medium_airport,Bou Saada Airport,35.3325,4.20639,1506,AF,DZ,DZ-28,Ouled Sidi Brahim,BUJ
32139,small_airport,Al-Bough Airport,17.34670067,44.62170029,3800,AS,YE,YE-SD,Al-Bough,BUK
46171,small_airport,Bulolo Airport,-7.216286671,146.6495419,2240,OC,PG,PG-MPL,Bulolo,BUL
19414,small_airport,Butler Memorial Airport,38.28979874,-94.34010315,892,NA,US,US-MO,Butler,BUM
6107,medium_airport,Gerardo Tobar López Airport,3.81963,-76.9898,48,SA,CO,CO-VAC,Buenaventura,BUN
30802,small_airport,Burao Airport,9.5275,45.5549,3400,AF,SO,SO-TO,Burao,BUO
26547,medium_airport,Bhatinda Air Force Station,30.27009964,74.75579834,662,AS,IN,IN-PB,,BUP
3000,medium_airport,Joshua Mqabuko Nkomo International Airport,-20.017401,28.617901,4359,AF,ZW,ZW-BU,Bulawayo,BUQ
3432,medium_airport,Bob Hope Airport,34.197703,-118.356378,778,NA,US,US-CA,Burbank,BUR
6452,medium_airport,Batumi International Airport,41.61029816,41.59970093,105,AS,GE,GE-AJ,Batumi,BUS
315554,small_airport,Bathpalathang Airport,27.5622,90.7471,8485,AS,BT,BT-33,Jakar,BUT
310599,small_airport,Muara Bungo Airport,-1.1278,102.135,214,AS,ID,ID-JA,Muara Bungo,BUU
41564,small_airport,Bella Union Airport,-30.33333397,-57.08333206,70,SA,UY,UY-AR,Bella Union,BUV
26802,small_airport,Betoambari Airport,-5.48688,122.569,164,AS,ID,ID-SG,Bau Bau,BUW
3054,medium_airport,Bunia Airport,1.565743,30.220685,4045,AF,CD,CD-IT,Bunia,BUX
26937,small_airport,Bunbury Airport,-33.37829971,115.677002,53,OC,AU,AU-WA,,BUY
5139,medium_airport,Bushehr Airport,28.94479942,50.83459854,68,AS,IR,IR-18,Bushehr,BUZ
4169,medium_airport,Paris Beauvais Tillé Airport,49.454399,2.11278,359,EU,FR,FR-HDF,Beauvais,BVA
5875,medium_airport,Atlas Brasil Cantanhede Airport,2.845855,-60.690944,276,SA,BR,BR-RR,Boa Vista,BVB
3151,medium_airport,Rabil Airport,16.1364994,-22.88890076,69,AF,CV,CV-B,Rabil,BVC
29001,medium_airport,Brive-Souillac,45.039722,1.485556,1016,EU,FR,FR-NAQ,Brive la Gaillarde,BVE
29255,medium_airport,Berlevåg Airport,70.871399,29.034201,42,EU,NO,NO-54,Berlevåg,BVG
5997,medium_airport,Brigadeiro Camarão Airport,-12.6944,-60.098301,2018,SA,BR,BR-RO,Vilhena,BVH
26907,medium_airport,Birdsville Airport,-25.89749908,139.3480072,159,OC,AU,AU-QLD,,BVI
343470,medium_airport,Bovanenkovo Airport,70.315278,68.333611,,EU,RU,RU-YAN,Bovanenkovo,BVJ
39441,small_airport,Huacaraje Airport,-13.55000019,-63.7478981,846,SA,BO,BO-B,Itenes,BVK
41590,small_airport,Baures Airport,-13.58333302,-63.58333206,470,SA,BO,BO-B,Baures,BVL
281,small_airport,Belmonte Airport,-15.8717,-38.871899,10,SA,BR,BR-BA,Belmonte,BVM
19419,small_airport,Bartlesville Municipal Airport,36.76250076,-96.01119995,711,NA,US,US-OK,Bartlesville,BVO
302436,small_airport,Esperadinha Airport,14.864306,-24.746,64,AF,CV,CV-S,Brava Island,BVR
414,small_airport,Breves Airport,-1.636530042,-50.4435997,98,SA,BR,BR-PA,Breves,BVS
16501,small_airport,Beluga Airport,61.17219925,-151.0440063,130,NA,US,US-AK,Beluga,BVU
34959,small_airport,Burevestnik Airport,44.919998,147.621994,79,EU,RU,RU-SAK,Kurilsk,BVV
38259,small_airport,Batavia Downs Airport,-12.65919971,142.6750031,,OC,AU,AU-QLD,,BVW
19421,small_airport,Batesville Regional Airport,35.7262001,-91.64730072,465,NA,US,US-AR,Batesville,BVX
3433,medium_airport,Beverly Regional Airport,42.584202,-70.916496,107,NA,US,US-MA,Beverly / Danvers,BVY
27432,small_airport,Beverley Springs Airport,-16.732756,125.439105,385,OC,AU,AU-WA,Wunaamin Miliwundi Ranges,BVZ
26593,medium_airport,Gautam Buddha International Airport,27.505328,83.412594,358,AS,NP,NP-P5,Siddharthanagar (Bhairahawa),BWA
26940,small_airport,Barrow Island Airport,-20.86440086,115.4059982,26,OC,AU,AU-WA,,BWB
19422,small_airport,Brawley Municipal Airport,32.99290085,-115.5169983,-128,NA,US,US-CA,Brawley,BWC
19423,small_airport,Brownwood Regional Airport,31.79360008,-98.95649719,1387,NA,US,US-TX,Brownwood,BWD
2284,medium_airport,Braunschweig-Wolfsburg Airport,52.319199,10.5561,295,EU,DE,DE-NI,Braunschweig,BWE
2443,medium_airport,Barrow Walney Island Airport,54.1286111,-3.2675,173,EU,GB,GB-ENG,Barrow-in-Furness,BWF
3434,medium_airport,Bowling Green Warren County Regional Airport,36.96450043,-86.41970062,547,NA,US,US-KY,Bowling Green,BWG
26867,medium_airport,RMAF Butterworth Air Base,5.46592,100.390999,11,AS,MY,MY-07,Butterworth,BWH
3435,large_airport,Baltimore/Washington International Thurgood Marshall Airport,39.1754,-76.668297,146,NA,US,US-MD,Baltimore,BWI
301800,small_airport,Bawan Airport,-6.396944444,146.8816667,4700,OC,PG,PG-MPL,,BWJ
3990,medium_airport,Brač Airport,43.285702,16.679701,1776,EU,HR,HR-17,Bol,BWK
13485,small_airport,Earl Henry Airport,36.79589844,-97.31700134,1054,NA,US,US-OK,Blackwell,BWL
322146,small_airport,Bowman Regional Airport,46.1655193,-103.30075,2965,NA,US,US-ND,Bowman,BWM
26819,large_airport,Brunei International Airport,4.9442,114.928001,73,AS,BN,BN-BM,Bandar Seri Begawan,BWN
30804,medium_airport,Balakovo Airport,51.85829926,47.74560165,95,EU,RU,RU-SAR,Balakovo,BWO
301803,small_airport,Bewani Airport,-3.021666667,141.1652778,550,OC,PG,PG-SAN,Bewani,BWP
